stop_code,stop_id,stop_lat,stop_lon,stop_name,zone_id
DC4539,0,28.851958,77.088107,Narela Terminal,0
DC4540,1,28.853311,77.088548,Police Station Narela,1
DC4541,2,28.854965,77.089322,Safiyabad Crossing,2
DC4542,3,28.857713,77.092846,Ramdev Chowk / Pitori Johad,3
DC4543,4,28.857684,77.097117,Narela A-6 / CPJ College,4
DC4544,5,28.854724,77.097933,State Bank Of Allahbad,5
DC4545,6,28.851769,77.097906,Sec A-9 Narela,6
DC4546,7,28.851771,77.097849,Narela Pocket 13 / A-9,7
DC4547,8,28.848993,77.098485,Narela Pocket 13 / A-6,8
DC4548,9,28.840804,77.102020,Raja Harish Chandra Hospital,9
DC4549,10,28.837226,77.098578,Kasturi Ram School,10
DC4550,11,28.836570,77.092010,Munim Ji Ka Bagh,11
DC4551,12,28.838193,77.091456,New Anaj Mandi,12
DC4552,13,28.840582,77.090589,Kurani More,13
DC4893,14,28.837755,77.081097,Prem Nagar Narela,14
DC4554,15,28.836570,77.079258,Maharaja Agrassen School,15
DC4555,16,28.833186,77.077052,Bharat Mata School,16
DC4556,17,28.825219,77.069668,Kaushal Devi Netraheen Ashram,17
DC5264,18,28.819549,77.063550,Sannoth Crossing / Ghoga Crossing,18
DC4558,19,28.815434,77.058213,Delhi Jal Board Bawana,19
DC4559,20,28.811811,77.053975,Jain Bekhunth Mandir,20
DC4560,21,28.807197,77.048415,Bawana JJ Colony CRPF Camp,21
DC3605,23,28.758318,77.148305,Swaroop Nagar GT Road,23
DC3606,24,28.750270,77.150750,Libas Pur GT Road,24
U01532,25,28.740200,77.154000,Sanjay Gandhi Transport Nagar,25
DC3607,26,28.735084,77.155874,Mukarba Chowk,26
U01588,27,28.731117,77.158967,GTK Depot,27
U99882A,28,28.725700,77.163000,Jahangirpuri GT Road (Metro Station),28
DC3655,29,28.721715,77.166162,Mahindra Park,29
U01698,30,28.720600,77.167100,Sarai Pipal Thala,30
U01747,31,28.717467,77.169917,Adarsh Nagar Metro Station,31
U01781,32,28.714415,77.172422,New Sabzi Mandi,32
U01867,33,28.706533,77.179280,Azadpur Terminal (Bara Bagh Road),33
U01929,34,28.701700,77.183100,Bara Bagh,34
U01969,35,28.699500,77.184900,Gujranwala Town,35
U02004,36,28.697100,77.186900,Telephone Exchange,36
U02033,37,28.695400,77.188300,State Bank Colony,37
U02088,38,28.691000,77.192000,Gurudwara Nanak Pyau,38
U02112,39,28.688267,77.193700,Rana Pratap Bagh,39
U02138,40,28.684800,77.196300,Gur Mandi,40
U02180,41,28.682832,77.197614,Roop Nagar / Shakti Nagar (GT Road),41
DC0027,42,28.677617,77.201567,Clock Tower,42
U02242,43,28.673300,77.201800,Roshnara Bagh,43
U02274,44,28.669249,77.204550,Roshnara Road,44
U02387,45,28.667538,77.207439,Ice Factory (Roshanara Road),45
DC0028,46,28.667356,77.215047,St Stephen Hospital,46
U02512,47,28.666864,77.218926,Tees Hazari Court,47
U02690,48,28.668328,77.225017,ISBT Nityanand Marg,48
DC3575,49,28.669469,77.228659,ISBT Bridge,49
U02946,50,28.673867,77.241633,Metro Train Depot,50
DC3576,51,28.674383,77.243117,Metro Train Depot,51
U03019,52,28.674100,77.247750,Shyam Giri Mandir,52
DC3577,53,28.673454,77.251954,Shastri Park GT Road,53
U03126,54,28.672611,77.257233,Shastri Park GT Road,54
U03184,55,28.671251,77.261675,Dharampura GT Road,55
U03193,56,28.670783,77.265423,Seelampur Metro Station,56
U03268,57,28.672117,77.273467,Seelam Pur Petrol Pump,57
U03300,58,28.672536,77.276325,Welcome Metro Station,58
U03350,59,28.673600,77.283533,Shahdara (Shyam Lal College),59
U03509,60,28.675900,77.299900,Mansarovar Park Metro Station,60
U03614,61,28.676067,77.309250,Telephone Exchange,61
U03636,62,28.676150,77.311883,Dilshad Garden GT Road,62
U03746,63,28.676518,77.321617,Shahdara Border Circle,63
U99883A,64,28.666391,77.321543,Surya Nagar (Gazipur Road),64
U03715,65,28.662479,77.320324,Ram Prastha Temple,65
U03712,66,28.660800,77.320200,Ram Prastha Crossing,66
DC3612,67,28.647061,77.317903,Anand Vihar ISBT Main Road,67
DC3531,69,28.618288,76.930672,Kair Depot,69
DC4030,70,28.608269,76.944782,Mitraon Village (Dhansa Road),70
U00079,71,28.607199,76.939964,Mitraon School,71
U00067,72,28.604251,76.932438,Surehra Crossing,72
U00051,73,28.600168,76.916132,Rawta Crossing (Dhansa Road),73
DC4018,74,28.594840,76.915348,Jaffarpur Kalan RTRM Hospital,74
DC4008,75,28.578394,76.909982,Samaspur Khalsa,75
U00143,76,28.688069,76.965440,Tikri Border Metro Station,76
U00165,77,28.687500,76.970800,Tikari Village,77
U00194,78,28.686900,76.978300,Tikri Hospital,78
U00211,79,28.686817,76.979933,Tikri Piyau / Azad Hind Gram,79
DC3758,80,28.686267,76.986533,Indian Oil Corporation,80
U00282,81,28.686112,76.994467,Ghevra Crossing (Kanjhawala Road),81
U00271,82,28.692850,76.993943,FCI Ghevra,82
U00290,83,28.696524,76.997956,Ghevra Village,83
U00302,84,28.707239,77.001132,Sir Chhotu Ram Polytechnic,84
U00317,85,28.714166,77.003188,Haryana Shakti School Kanjhawla,85
U00322,86,28.723483,77.004474,Desu Sub Station,86
U00327,88,28.733592,77.004502,Kanjhawala Village,88
DC5154,89,28.738005,77.007551,Kanjhawla Chowk,89
DC4516,90,28.738824,77.008263,Kanjhawla School,90
DC4517,91,28.751435,77.014409,Chandpur Kalan Crossing,91
DC5155,92,28.751370,77.009750,Chand Pur Village,92
DC5158,93,28.753290,77.007750,Chand Pur Village,93
DC5159,94,28.758950,76.998940,Chand Pur Majra School,94
DC5161,95,28.768990,76.998520,Majra Dabas Village,95
DC4519,96,28.766651,77.016409,Prem Piyau,96
DC4520,97,28.779779,77.021947,Shri Krishna Gaushala,97
DC4521,98,28.785026,77.023867,Bajit Pur Crossing,98
DC4522,99,28.787599,77.025648,Krishna Vihar,99
DC4523,100,28.794529,77.029967,Ishwar Colony,100
DC4524,101,28.797939,77.031709,Panchayat Ghar,101
DC4525,102,28.797795,77.034329,Primary School,102
DC4526,103,28.800379,77.036058,Bawana Village Chowk,103
U01343,104,28.745390,77.137270,Badli Railway Staion,104
U01390,105,28.744211,77.143076,Samaypur School,105
DC3772,106,28.743133,77.146286,Prem Nagar,106
U02440,107,28.667610,77.210806,Ice Factory (Nityanand Marg),107
U02716,108,28.665616,77.230079,ISBT Kashmere Gate (Lothian Road),108
U02791,109,28.665651,77.230073,Guru Govind Singh University (Kashmere Gate),109
U02842,110,28.661819,77.235256,GPO,110
U02739,111,28.660304,77.225322,Old Delhi Railway Station,111
U03402,112,28.674090,77.286865,Shahdara Terminal,112
U03349,113,28.673043,77.282749,Shahdara (Shyam Lal College),113
U03340,114,28.670400,77.280900,Kanti Nagar Extension,114
U03346,115,28.667850,77.282250,Jharkhandi,115
U03384,116,28.666167,77.283917,East Azad Nagar,116
U03394,117,28.663502,77.285917,Swaran Cinema,117
U03404,118,28.661000,77.287800,Krishna Nagar A Block,118
U03430,119,28.658200,77.290000,Hans Apartment,119
U03444,120,28.656400,77.291500,Arjun Nagar,120
U03457,121,28.654000,77.292500,Radheypuri,121
U03461,122,28.651637,77.293123,Jagatpuri  A Block,122
U03476,123,28.648036,77.295529,Jagatpuri F-Block,123
U99881,124,28.645500,77.297900,Gagan Vihar,124
U03500,125,28.642867,77.297250,Karkardooma Xing,125
U03485,126,28.642150,77.296250,New Rajdhani Enclave,126
DC0109,127,28.639333,77.292417,Preet Vihar,127
U03416,128,28.636783,77.287683,Nirman Vihar,128
U03380,129,28.635367,77.284950,Shakarpur Crossing,129
U03345,130,28.633394,77.281942,Shakarpur,130
U03307,131,28.631300,77.278900,Laxmi Nagar,131
U03160,132,28.628033,77.260933,Rainy Well,132
U03055,133,28.627950,77.252350,Delhi Secretariat,133
U02961,134,28.627967,77.244433,ITO,134
U02887,135,28.625300,77.238700,Tilak Bridge,135
U02831,136,28.625633,77.234000,Mandi House,136
U02790,137,28.625035,77.230571,Mandi House,137
DC4132,138,28.623228,77.226725,Kasturba Gandhi Road Crossing,138
U02621,139,28.621000,77.221500,Firoz Shah Road,139
DC4133,140,28.619225,77.217521,Le Meridian Hotel / Rajendra Prasad Road,140
U02495SB,141,28.616983,77.213700,Krishi Bhawan,141
U02444,142,28.618035,77.210453,Red Cross Road,142
U02437,143,28.620650,77.209800,Aakashwani Bhawan (Imtiyaz Ali Road),143
U02375,144,28.620900,77.207300,Gurudwara Rakab Ganj Road,144
U02293Z,145,28.617383,77.203950,Kendriya Terminal (Church Road),145
U00191,146,28.615127,76.977508,Najafgarh Terminal,146
U00201,147,28.613617,76.979717,Jharoda Crossing/Nazafgarh Terminal,147
DC3555,148,28.614413,76.981070,Jharoda Crossing,148
DC3556,149,28.614155,76.985213,Health Centre,149
U00259,150,28.612690,76.986418,NajafGarh Delhi Gate,150
U00260,151,28.612594,76.991382,Tuda Mandi,151
U00314,154,28.614667,77.003400,Nangli Sakrawati,154
U00331,155,28.616198,77.007131,Nangli Sakrawati Crossing,155
U00355,156,28.618320,77.013185,Arjun Park,156
DC4882,157,28.619105,77.015167,Chhathh Ghat Park,157
U00368,158,28.620035,77.017855,Nangli Dairy,158
U00378,159,28.619980,77.024738,Kakrola Bridge,159
U00387,160,28.619230,77.028823,Kakrola More,160
U00395,161,28.619119,77.031797,Kakrola More,161
DC3568,162,28.619591,77.032774,Sewak Park Dwarka More Metro Station,162
U00425,163,28.619948,77.037062,Rama Park,163
U00453,164,28.620290,77.039178,Mohan Garden,164
U00464,165,28.620487,77.045475,Nawada,165
U00491,166,28.620876,77.049338,Kiran Garden,166
U00503,167,28.621241,77.052393,Om Vihar,167
U00538,168,28.621946,77.056321,Prem Nagar,168
U00561,169,28.623269,77.060947,Uttam Nagar,169
U00601,170,28.624813,77.067696,Uttam Nagar / A1 Janak Puri,170
U00623,171,28.621617,77.069969,Tilak Pul,171
U00651,172,28.620041,77.073165,Jivan park,172
U00680,173,28.618239,77.076935,C-1 Janak Puri,173
U00741,175,28.616152,77.081383,C-2 Janak Puri,175
DC4710,176,28.614365,77.085484,C2D Janak Puri,176
U00813,177,28.613050,77.088391,Dabri Crossing (Pankha Road),177
U00876,178,28.611026,77.093012,Janak Cinema,178
U00907,179,28.610049,77.095367,Desu Colony Janak Puri,179
U00974,180,28.609265,77.100931,SagarPur Vashisht Park,180
U01004,181,28.610960,77.103583,D Block Janak Puri,181
U01019,182,28.614000,77.106200,Lajwanti Garden,182
U01044,183,28.613130,77.109679,Lajwanti Garden (Carriappa Marg),183
U01079,184,28.610700,77.113900,Janak Setu,184
U01164,185,28.606783,77.123367,Supply Depot,185
U04005A,186,28.604833,77.128283,Kirbi Place,186
NS0256,187,28.602817,77.133517,Thimiyan Park,187
U01356CV,188,28.600317,77.139733,S O Flats Carriappa Marg,188
U01481,189,28.596167,77.150400,R R Line,189
U01594,190,28.592967,77.158483,Golf Club,190
U01636,191,28.592987,77.162867,Dhaula Kuan,191
U02453,192,28.704301,77.211310,BBM Cluster Depot,192
U02420,193,28.702162,77.209581,Sewa Kutir,193
DC3717,194,28.698158,77.207636,GTB Nagar / Haqiqat Nagar,194
U02467,195,28.696197,77.212140,INS Hostel,195
U02515,196,28.695022,77.215318,Vishwa Vidyalaya Metro Station,196
U02572,197,28.693820,77.218624,Mall Road,197
U02594,198,28.697140,77.220359,Banarsi Daas Estate Timarpur,198
U02599,199,28.701025,77.221270,Timarpur,199
DC3745,200,28.705400,77.223167,Balak Ram Hospital,200
U02656,201,28.706947,77.224038,Police Station Timarpur,201
U02705,202,28.709086,77.226260,Nehru Vihar Crossing,202
U02737,203,28.711529,77.228752,Wazirabad Crossing,203
DC3724,204,28.710233,77.241367,Gurudwara Nanak Sar,204
DC3725,205,28.718900,77.243250,Pusta No 1 Sonia Vihar,205
DC3727,206,28.721517,77.243867,Pusta No 2 Sonia Vihar,206
DC3729,207,28.725583,77.244800,Pusta No 3 Sonia Vihar,207
DC3731,208,28.730183,77.245750,Gatta Factory Sonia Vihar,208
DC3732,209,28.732400,77.246233,Sonia Vihar,209
DC3734,210,28.734583,77.246633,Pusta No 5 Sonia Vihar,210
DC3737,211,28.739367,77.247450,Check Post,211
DC3738,212,28.742450,77.246567,Annpurna Mandir,212
DC3740,213,28.750167,77.243850,Sabhapur More,213
DC3742,214,28.754767,77.243250,Chauhan Patti (Terminal),214
DC4197,215,28.578409,77.058932,NHAI Building/ Dwarka Sec-10 Metro Station,215
DC4346,216,28.578591,77.054908,Dwarka Sec-19 Modern School,216
DC4344,217,28.574383,77.051150,Amrohi More,217
DC4342,218,28.573412,77.048418,St Marry School,218
DC4340,219,28.577292,77.035195,Police Post,219
DC4338,220,28.578247,77.029150,Qutub Vihar Phase-I Kikar Stand,220
DC4336,221,28.579050,77.024348,Jhankar Crossing,221
DC4334,222,28.579766,77.021478,Goyla Dairy,222
DC4332,223,28.580346,77.019327,Nehru Bus Stand Goyla Dairy,223
DC4330,224,28.581816,77.015072,St Thomas School Goyla Vihar,224
DC4328,225,28.583270,77.011534,Taj Pur More,225
DC4326,226,28.587476,77.008636,Goyla Village,226
DC4324,227,28.591403,77.000404,Shyam Vihar,227
U00266,228,28.591721,76.992877,Goela Dairy Crossing,228
U00262,229,28.593389,76.991941,Deenpur Village,229
U00254,230,28.596621,76.990298,Durga Vihar,230
U00249,231,28.600768,76.988661,BDO Office,231
U00229,232,28.607990,76.985536,Chhawla Stand Najafgarh,232
U00226,233,28.610319,76.981338,Police Station Najafgarh,233
U00217,235,28.617676,76.984284,Dichau Chowk,235
U00234,236,28.621747,76.988040,Udaseen Ashram,236
U00252,237,28.625259,76.992196,Nirmal Vihar,237
U00288,238,28.629304,76.997733,Dichau Kalan Depot,238
DC0018,239,28.707525,77.177797,Azadpur Terminal,239
U01780,240,28.713900,77.172500,New Sabzi Mandi,240
U01761,241,28.715917,77.170867,Adarsh Nagar / Bharola Village,241
U01699,242,28.720417,77.166983,Sarai Peepal Thala,242
DC3598,243,28.721533,77.166000,Mahindra Park,243
DC3599,244,28.725100,77.163217,Jahangir Puri GT Road,244
DC3600,245,28.727300,77.161583,Jahangir Puri Metro Station,245
U01582,246,28.731183,77.158617,GTK Depot,246
DC3601,247,28.734723,77.155831,Mukarba Chowk,247
DC3602,248,28.738331,77.154234,Sanjay Gandhi Transport Nagar,248
U01479,249,28.752467,77.149383,Libas Pur GT Road,249
U01464,250,28.758050,77.147650,Swaroop Nagar GT Road,250
DC4802,251,28.764860,77.145315,Gurudwara Siraspur GT Road,251
DC5178,252,28.771708,77.142899,Nangli Poona More,252
DC5180,253,28.771944,77.121967,Khera Garhi,253
DC5182,254,28.771903,77.117675,Khera Kalan School,254
DC5184,255,28.772345,77.115104,Khera Kalan Gaon,255
DC5186,256,28.773931,77.104022,Rishi Dharmarth Chikitsalaya,256
DC5188,257,28.773923,77.102521,Khera Khurd Village,257
DC5191,258,28.773761,77.092410,Khera Khurd Nahar Crossing,258
DC5192,259,28.783337,77.096637,Naya Bans,259
DC5194,260,28.793447,77.095545,Mann School,260
DC5096,261,28.795391,77.097784,Holambi Khurd DRID College,261
DC5098,262,28.799721,77.096011,Holambi Khurd,262
DC5100,263,28.801883,77.096003,Holambi Kalan Terminal,263
DC4996,264,28.809564,77.107095,Holambi Kalan Crossing,264
DC4998,265,28.817688,77.102397,Shahpur Garhi,265
DC5000,266,28.820295,77.101135,Narela ITI / Narela Depot,266
DC5002,267,28.821204,77.100678,DSIDC Narela,267
DC5004,268,28.829162,77.094509,Bhor Garh,268
DC5006,269,28.833012,77.093266,Babu Jag Jeevan Ram Colony,269
DC4537,270,28.845328,77.088967,Old Anaj Mandi,270
DC4538,271,28.847045,77.088366,Narela Primary School,271
DC4364,272,28.779253,77.179936,Keshav Nagar Mukti Ashram,272
DC4362,273,28.775793,77.179669,Ibrahim Pur More,273
DC3796,274,28.768883,77.180783,Natthupura Crossing Terminal,274
U01942,275,28.764500,77.183800,Amrit Vihar Colony,275
U02050,276,28.761167,77.188717,Koushik Enclave,276
U02086,277,28.760150,77.191083,Laxmi Vihar,277
DC0054,278,28.755500,77.198300,Ekta Garden- Harijan Basti,278
U02216,279,28.754100,77.199000,Burari Village,279
U02214,280,28.749233,77.198567,Sarvodhya Vidhyalay Burari,280
U02200,281,28.746700,77.198300,Balti Factory,281
U02182,282,28.741800,77.198000,Sant Nagar Main Market,282
U02160,283,28.737700,77.197300,Sant Nagar A-1,283
U02169,284,28.734483,77.197717,Jharoda Dairy Crossing,284
U02199,285,28.730567,77.198467,Burari Transport Authority,285
U02185,286,28.727730,77.198067,Nirankari Sarover- Burari Xing,286
DC0055,287,28.720950,77.200150,CV Raman ITI,287
U02301,288,28.714883,77.204100,Nirankari Colony,288
U02327,289,28.711233,77.204500,Radio Colony,289
U09586,290,28.706789,77.204733,Dhaka Village,290
U02325,291,28.704580,77.205033,Balmiki Gandhi Ashram,291
U02318,292,28.700567,77.205017,TB Hospital,292
U02350,293,28.698294,77.206554,GTB Nagar,293
U02613,294,28.690202,77.221419,Khyber Pass,294
U02620,295,28.687634,77.221672,Vidhan Sabha Metro Station,295
U02628A,296,28.683891,77.222282,Old Secretariat (Postal Account Office),296
U99851,297,28.679703,77.223955,IP College,297
DC3689,298,28.676602,77.225033,Exchange Store / Civil Lines Metro Station,298
U02700,299,28.672405,77.226008,Ludlow Castle,299
DC3596,300,28.668478,77.226155,ISBT Nityanand Marg,300
U01890,301,28.768915,77.180950,Natthupura Terminal,301
U02176,303,28.738728,77.197685,Sant Nagar A-1,303
U02395,304,28.698283,77.207600,GTB Nagar / Haqiqat Nagar,304
U02421,305,28.702650,77.209817,Sewa Kutir,305
U02458,306,28.704317,77.211183,BBM Cluster Depot,306
DC4855,307,28.532504,77.314937,Madanpur Khadar JJ Colony,307
DC4856,308,28.531925,77.304505,Madanpur Khadar Crossing,308
DC4857,309,28.543017,77.309483,Kalindi Kunj Metro Station,309
DC4858,310,28.545083,77.306217,Kalindi Kunj,310
DC4859,311,28.542817,77.303050,Shaheen Bagh,311
DC4860,312,28.540400,77.296800,Jasola Vihar,312
DC4861,313,28.538333,77.291867,Sarita Vihar K Block,313
U03351,314,28.539501,77.282682,Apollo Hospital,314
U03323,315,28.543764,77.279340,Harkesh Nagar,315
U03292,316,28.548007,77.276605,Okhla Tank,316
U03273,317,28.551088,77.273998,CRRI,317
U03249,318,28.554827,77.271291,Sukhdev Vihar Depot,318
U03225,319,28.557950,77.268950,Kalkaji Xing,319
U03204,320,28.561592,77.266287,Ishwar Nagar,320
U03148S,322,28.570450,77.259788,Ashram Chowk,322
U03121,323,28.574277,77.256865,Ashram (Hari Nagar),323
U03049,324,28.582917,77.251209,Bhogal,324
U03037,325,28.584692,77.249659,Bhogal (Jungpura),325
U03000,326,28.589269,77.246339,Nizamuddin Extension,326
U02974,327,28.591349,77.244916,Police Station Nizamuddin (Dargah),327
U02860,328,28.592400,77.236750,Ishpat Bhawan,328
DC0094,329,28.591833,77.232383,JLN Stadium (Sunehripulla Depot),329
U02661,330,28.586733,77.224250,Lodhi Colony 18-Block,330
U99988,331,28.584817,77.224533,Lodhi Colony,331
DC0098,332,28.580036,77.225132,Kushak Nallah Depot,332
DC3821,333,28.532281,77.296803,Madanpur Khadar Village,333
U03421,334,28.529703,77.287907,Madanpur Khadar Crossing,334
U03398,335,28.532092,77.286936,Sarita Vihar,335
U03077,336,28.568283,77.253917,Nehru Nagar,336
U03024,337,28.565297,77.247779,Lajpat Nagar Ring Road,337
U02941,338,28.564833,77.241433,Gupta Market,338
U03997A,339,28.564850,77.239667,Gupta Market,339
U02843,340,28.569135,77.235154,MCKR Hospital,340
U02867,341,28.573000,77.237367,Defence Colony,341
U02923,342,28.583917,77.240533,Pant Nagar,342
U02930,343,28.587033,77.240800,CGO Complex,343
U02920,344,28.596267,77.240433,Amir Khusro Park / Oberoi Hotel,344
U99968,345,28.598783,77.240600,Delhi Public School,345
U02904,346,28.602217,77.240400,Sunder Nagar,346
U02899,347,28.608310,77.240026,Zoo,347
U02897,348,28.611043,77.239986,National Stadium,348
U02901,349,28.616035,77.240208,ITPO Gate No. 3,349
U02907,350,28.618483,77.240183,Pragati Maidan Gate No. 5,350
U02909,351,28.622967,77.240488,Supreme Court,351
U99740,352,28.623433,77.240567,Pragati Maidan Metro Station,352
U02934,353,28.629065,77.241192,ITO (Agarwal Chowk),353
U02929,354,28.633864,77.240804,Express Building,354
U02932,355,28.637167,77.240939,Delhi Gate,355
U02918,356,28.644512,77.240303,Darya Ganj Golcha Cinema,356
U02893,357,28.649272,77.239311,Subhash Park,357
U02879,358,28.651286,77.237844,Jama Masjid,358
U02858,359,28.653939,77.236401,Red Fort,359
U02807,360,28.658854,77.231720,Old Delhi Railway Station (T) H C Sen Marg,360
DC5414,361,28.542754,76.888747,Sarang Pur Village,361
DC5412,362,28.534792,76.904321,JhulJhuli Village,362
DC4023,363,28.535283,76.909333,Jhul-Jhuli Check Post / Ghumanhera Crossing,363
DC4578,364,28.552333,76.907483,Malik Pur Village Crossing,364
DC4025,365,28.568338,76.906523,Ujwa Gaon,365
DC4009,366,28.573511,76.908247,Ujwa School,366
DC4026,368,28.579079,76.910096,Samaspur Khalsa,368
U00055,370,28.600144,76.914487,Rawta Crossing (Dhansa Road),370
U00069,371,28.604480,76.932397,Surehra Crossing,371
U00078,372,28.607252,76.939754,Mitraon School,372
DC4746,374,28.608343,76.951668,Mitraon Crossing,374
U00116,375,28.608858,76.959974,Indra Service Station,375
U00158,376,28.609487,76.967851,Nanak Piyau,376
U00168,377,28.610354,76.971259,Prem Nursary,377
U00184,378,28.611145,76.974375,Khera More,378
U00202,379,28.613766,76.979363,Jharoda Crossing Jharoda Road,379
U00192,380,28.614831,76.977249,Najafgarh Terminal,380
U01725,381,28.703538,77.169078,Shalimar Bagh (Ring Road),381
U01667,382,28.701819,77.165532,Ashok Vihar Crossing,382
U01613,383,28.700812,77.161947,Richi Rich,383
U01576,384,28.700065,77.158465,Prem Bari Pul,384
U01546,385,28.695994,77.155671,Punjab Kesari (Subhash Palace Depot),385
DC0031,386,28.693861,77.150918,Wazirpur DTC Depot / Netaji Subhash Palace,386
U01448,387,28.695530,77.146025,Pitampura ND Block,387
U01392,388,28.697168,77.142174,Kohat Enclave Metro Station,388
U01338,389,28.699303,77.137619,Vaishali  Enclave / Kapil Vihar,389
U01298,390,28.701413,77.134676,JD Block Pitam Pura,390
U01272,391,28.702332,77.133401,PitampuraMetro Stn (MadhuvanChowk),391
U01252,392,28.702886,77.130242,Madhuban Chowk Outer Ring Road,392
U01199,393,28.700082,77.125333,Saraswati  Vihar C Block,393
U01135,394,28.697960,77.119620,Deepali Chowk,394
U01086,395,28.697185,77.115505,Kali Mata Mandir,395
U01059,396,28.696165,77.111793,Puspanjali Enclave,396
U01043,397,28.695388,77.109414,Rohini Depot - 3,397
U99992,398,28.694461,77.106694,Mangolpur School,398
U00979,399,28.695549,77.101135,Mangolpur Kalan Village,399
DC0011,400,28.698750,77.096400,Avantika Crossing,400
U00896,401,28.700005,77.094325,Mangol Pur Khurd,401
U00832,402,28.702634,77.089647,Mangolpuri Y Block,402
U00797,403,28.704528,77.086895,Budh Vihar,403
U00765,404,28.709575,77.081001,Krishna Vihar,404
U00723,405,28.712500,77.080500,Brahm Shakti Hospital,405
U00682,406,28.714257,77.076933,Pooth Kalan,406
U00618,407,28.718700,77.069600,Rohini Sec-21,407
U00591,408,28.721700,77.064950,Begumpur,408
U00544,409,28.724733,77.058750,Rajeev Nagar,409
U00518,410,28.726356,77.053345,Karala Pathsala Jain Mandir,410
U00484,411,28.727533,77.048950,Sukhbeer Nagar,411
U00465,412,28.728583,77.045817,Rama Vihar,412
U00443,413,28.730681,77.039664,Karala School,413
U00429,414,28.731500,77.037000,Karala Village,414
U99798,415,28.731601,77.031627,Karala Crossing,415
U99807,416,28.732500,77.028400,Desu Office,416
DC0007,417,28.733300,77.025000,Shiv Vihar Bheem Chowk,417
U99798A,418,28.733840,77.020800,Radha Swami Satsang,418
U00352,419,28.735200,77.012583,Shivam Plywood,419
DC4667,420,28.737911,77.006920,Kanjhawla Chowk,420
DC4668,421,28.738428,77.004399,Nirmal Hospital,421
DC4670,422,28.739490,76.997517,Ladpur Village,422
DC4671,423,28.740338,76.994313,Rajendra Lakra Public School,423
DC4672,424,28.742250,76.986500,Sant Vivekanand School,424
DC4673,425,28.744467,76.980917,Vriddha Ashram,425
DC4674,426,28.746150,76.978217,Jonti Crossing,426
DC4675,427,28.753145,76.972068,Jonti Village,427
DC4676,428,28.755872,76.968475,Tatesar Village,428
DC4678,429,28.767498,76.964560,Balaji Enclave,429
DC4679,430,28.773006,76.962094,Punjab Khor Village,430
DC4680,431,28.777900,76.961400,Punjab Khor Village,431
DC4682,432,28.788119,76.962441,Divya Dham Ashram,432
DC4681,433,28.790690,76.962473,Jatt Khor Crossing,433
DC4909,434,28.797700,76.960533,Qutub Garh Enclave,434
DC4910,435,28.801274,76.962031,Qutub Garh Village (T),435
DC4911,436,28.806100,76.965850,Katewara Crossing,436
DC5047,437,28.805956,76.969867,Katewara Colony,437
DC3811,439,28.643931,77.252592,Rajghat Depot,439
U03043,440,28.638900,77.250200,Rajghat Gandhi Darshan,440
U03011,441,28.636983,77.247267,Gandhi Darshan,441
U03007P,442,28.633600,77.246900,Indira Gandhi Stadium,442
DC3679,443,28.624078,77.247687,IP Power House (ITO Ring Road),443
U03025,444,28.619500,77.249000,Indraprastha Depot,444
U03040,445,28.616000,77.250100,Pragati Power Station,445
U03052,446,28.610753,77.251790,Railway Road Bridge,446
U03075,447,28.603047,77.254254,Nizamuddin Road Bridge,447
U03147,448,28.590868,77.258170,ISBT Sarai Kale Khan,448
DC0097,449,28.580073,77.224903,Kushak Nallah Depot,449
DC0100,450,28.584700,77.224700,Lodhi Colony,450
U02735,451,28.584967,77.228233,Central School Lodhi Road,451
U02783,452,28.584100,77.230100,J L Nehru Stadium,452
U02775,453,28.578750,77.229533,Sewa Nagar Flyover,453
U02732,454,28.571983,77.227667,Defence Colony (Homyopathic College),454
U02710,455,28.569817,77.226550,PT College Kotla,455
U02788,456,28.565987,77.230567,Andrews Ganj,456
U99989,457,28.565133,77.239733,Gupta Market,457
U02951,458,28.565141,77.241640,Lajpat Nagar (Ring Road),458
U02950,459,28.565781,77.249098,Lajpat Nagar Ring Road,459
U03041,460,28.564183,77.250367,Lajpat Nagar Crossing,460
U03047,461,28.562400,77.251417,Garhi Village,461
U03102,462,28.562167,77.255617,B-Block East of Kailash,462
U03142,463,28.562150,77.258200,C-Block East of Kailash,463
U03162,464,28.561242,77.260160,SNPD,464
U03190,465,28.556500,77.264800,Laghu Udyog Sansthan (ModiMill),465
U03196,466,28.553683,77.265133,NSIC,466
U03181,467,28.552050,77.264500,Kalkaji Mandir,467
U03174,468,28.547900,77.263000,Kalkaji Mandir (MaaAnandmayeeMarg),468
U03185,469,28.545217,77.264100,Govind Puri Metro Station,469
U03206,470,28.537500,77.267400,Kalkaji Depot,470
U03219,471,28.534033,77.268667,C-Lal Chowk,471
DC0136,472,28.527867,77.272383,CRPF Camp / Crown Plaza,472
DC0137,473,28.526100,77.273600,Bank,473
U03297,474,28.520300,77.277700,Okhla Ph-I,474
DC1311,475,28.514250,77.281333,ESI Hospital,475
U99679Z,476,28.510917,77.281167,Tehkhand Depot DTC,476
U03321,477,28.504400,77.279300,Prem Nagar,477
U03366,478,28.502600,77.284517,Lal Kuan,478
U03435,479,28.501700,77.291000,Surajkund Crossing,479
U03466,480,28.500000,77.294633,Prehlad Pur,480
U03520,481,28.499500,77.299267,Badarpur M B Road,481
U03544,482,28.498104,77.302191,Jaitpur Crossing,482
DC4311,484,28.628968,76.997542,Dichau Kalan Depot,484
DC4312,485,28.625293,76.992481,Nirmal Vihar,485
DC4313,486,28.621564,76.988064,Udaseen Ashram,486
DC4314,487,28.616516,76.983820,Dichau Chowk,487
U00233,488,28.611746,76.985721,Najafgarh Delhi Gate,488
U00231,489,28.607056,76.986005,Chawla Stand Najafgarh,489
U00251,490,28.600879,76.988758,BDO Office,490
U00255,491,28.596640,76.990460,Durga Vihar,491
U00263,492,28.593300,76.992000,Deenpur Village,492
U00267,493,28.591726,76.992969,Goela Dairy Crossing,493
DC4323,494,28.591481,77.000564,Shyam Vihar,494
DC4325,495,28.587801,77.008562,Goyla Village,495
DC4327,496,28.583311,77.011776,Taj Pur More,496
DC4329,497,28.581902,77.015056,St Thomas School Goyla Vihar,497
DC4331,498,28.580514,77.019268,Nehru Bus Stand Goyla Dairy,498
DC4333,499,28.579855,77.021953,Goyla Dairy (Qutub Vihar),499
DC4335,500,28.579252,77.024293,Jhankar Crossing,500
DC4337,501,28.578400,77.029767,Qutub Vihar Phase-I Kikar Stand,501
DC4339,502,28.577431,77.035333,Police Post,502
DC4343,503,28.574817,77.051300,Amrohi More,503
DC4345,504,28.578167,77.054200,Dwarka Sec-19 Modern School,504
DC4198,505,28.579068,77.059118,NHAI Building/ Dwarka Sec-10 Metro Station,505
DC4199,506,28.582753,77.062279,President Cabinet Apartments,506
DC4200,507,28.587688,77.066452,Princess Park/ Airforce Noval Office Enclave,507
DC4201,508,28.591260,77.069535,Dwarka Sec-6/7,508
DC4202,509,28.593228,77.070994,Dwarka Sec-6 Telephone Exchange,509
DC3646,510,28.593100,77.079680,Dwarka Crossing / Maharaja Agrasen Hospital,510
U00731,511,28.592015,77.081258,Health Centre,511
U00780,512,28.590099,77.086907,Mangla Puri Terminal,512
U02523A,513,28.632763,77.215806,Shivaji Stadium Terminal,513
DC3751,514,28.633250,77.212283,Shaheed Bhagat Singh Marg,514
U02415,515,28.633562,77.209301,Shaheed Bhagat Singh Marg,515
U02288,516,28.634700,77.203700,Gole Market,516
U02283,517,28.638783,77.203450,PS Mandir Marg,517
U02306BM,518,28.639867,77.204300,Balmiki Mandir,518
U02295,519,28.641700,77.204200,Panchkuian Road Banwai Lal Hospital,519
U02240,520,28.643667,77.201033,Meghdoot Bhawan,520
U02105,521,28.644583,77.192833,Pusa Road Petrol Pump Sadhu Vaswani Marg,521
U02028,522,28.643911,77.188747,Karol Bagh Metro Station,522
U01796,524,28.642411,77.173409,East Patel Nagar,524
U01717,525,28.645395,77.168420,South Patel Nagar (Metro Station),525
U01665,526,28.647504,77.164974,West Patel Nagar,526
U01575,527,28.651345,77.158510,Shadipur DTC Colony Metro Station,527
U01543,528,28.653117,77.155500,Shadipur Depot,528
U01472,529,28.657317,77.148500,Moti Nagar Industrial Area,529
U01399,530,28.661000,77.142383,Karampura Terminal,530
U01374,531,28.663500,77.140600,New Moti Nagar B Block,531
U01337,532,28.669047,77.137160,Punjabi Bagh Terminal,532
U01463,533,28.684228,77.147619,Shakkur Pur Crossing / Britannia,533
U01488,534,28.686452,77.150998,Telephone Exchange,534
U01521,535,28.691698,77.153496,Netaji Subhas Place/Wazirpur Depot,535
U01504,536,28.697900,77.151475,Guru Govind Singh College,536
U01498,537,28.699707,77.151202,TV Tower (Power House),537
U01426,538,28.699912,77.144280,DAV School,538
U99722,539,28.700200,77.141100,Pitam Pura KD Block,539
U01361,540,28.703277,77.139304,Pittampura AP-Block,540
U01345,541,28.705955,77.138462,Pitampura CD-Block,541
U01294,542,28.707765,77.134558,Pitampura Power House,542
U01270,543,28.704931,77.132221,Madhuban Chowk (Outer Ring Road),543
U01251,544,28.704675,77.130151,Madhuvan Chowk,544
U01194,545,28.708246,77.124483,Sai Baba Chowk Rohini,545
U01174,546,28.709060,77.123648,Sai Baba Chowk Rohini,546
U01101,547,28.711578,77.120316,Rohini Sec 7 and 8,547
DC0005,548,28.715000,77.115000,Rohini West Metro Station,548
U01081,549,28.715800,77.113983,Rohini Depot 1 Sec 6 (Ambedkar Hospital),549
U01064,550,28.717250,77.111833,Rajeev Gandhi Cancer Hospital,550
U01033,551,28.719600,77.108400,Rithala Metro Station,551
U01006,552,28.723500,77.103600,Pal Colony,552
DC0040,553,28.725917,77.100106,Rithala Village,553
DC0041,554,28.727000,77.098400,Sec-24 Rohini Main Road,554
DC0042,555,28.729650,77.094683,Dera Satguru Sewaram Sahai Sec 24/25,555
DC0044,557,28.722883,77.087733,Hanuman Mandir Rohini Sec 24,557
DC0045,558,28.719309,77.084710,Rohini Sec 23 Pkt 1 (Green Hill Aptt.),558
DC4419,559,28.532153,76.922323,Ghuman Hera Village,559
DC4420,560,28.536905,76.922167,Ghuman Hera More / Shikarpur Crossing,560
DC4421,561,28.548976,76.930686,Dewta Wala mandir,561
DC4422,562,28.556822,76.936855,Hasanpur Village,562
DC4423,563,28.561760,76.941887,KharKhari Rondh,563
DC4424,564,28.574027,76.952356,Pandwala Crossing,564
DC4425,565,28.582168,76.957902,Surhera Crossing,565
DC4426,566,28.587040,76.959128,KharKhari Nahar / Khera Dabur,566
DC4432,567,28.596312,76.964794,Khera Village 2,567
DC4784,568,28.606791,76.972726,Krishna Nagar / Gopal Nagar,568
DC4461,569,28.584638,76.995053,Jhatikra Crossing Pandwala Road,569
DC4452,570,28.572355,76.980956,Rewla Khanpur Crossing,570
DC4454,571,28.569584,76.977685,Purani Basti Rewla Khanpur,571
DC5259,572,28.568674,76.976714,Rewla Khanpur Depot,572
DC5415,573,28.835983,77.123838,Tikri Khurd,573
DC4967,574,28.836177,77.128390,Tikri Khurd Crossing / AMPC,574
DC4979,575,28.835604,77.128935,Tikri Khurd Crossing / AMPC,575
DC4980,576,28.824476,77.132311,Khampur Village,576
DC5058,577,28.810288,77.137092,Bakauli Village (GT Road),577
DC5082,578,28.804150,77.142740,Shani Dham Mandir GT Road,578
DC4829,579,28.801200,77.138967,Pwd Office,579
DC4830,580,28.796617,77.139600,Alipur Village GT Road,580
DC4832,581,28.793233,77.144150,Jind Pur Crossing,581
DC4833,582,28.788650,77.141467,Sai Mandir,582
DC4834,583,28.782107,77.141601,Budhpur GT Road,583
DC4835,584,28.777150,77.142633,Jain Mandir,584
DC4836,585,28.774167,77.143267,Nangli Poona (GT Road),585
DC4837,586,28.764956,77.146126,Gurudwara Siraspur GT Road,586
U00736,587,28.522481,77.082442,Kapashera Border,587
U00759,588,28.524517,77.083700,Kapashera Village,588
U00808,589,28.531234,77.088154,Kapashera Crossing,589
U00834,590,28.534492,77.090371,Samalkha Village,590
U00856,591,28.538205,77.091434,Samalkha Crossing,591
NS0198,592,28.541500,77.076820,Puspanjali G Block,592
U00527BP,593,28.544217,77.065083,Dwarka Road,593
U00527,594,28.547567,77.057117,Bharthal Under Pass,594
DC4186,595,28.551919,77.056631,Dwarka Sec-21 Metro Station,595
DC4184,596,28.554110,77.058580,Dwarka Sec-21 Crossing,596
DC4288,597,28.558065,77.061889,Dwarka Sec 22 Vivanta Hotel,597
DC4935,598,28.564150,77.062970,Dwarka Sec-20/21 Crossing,598
DC4929,599,28.566220,77.066910,Dwarka Sec-8 Metro Station,599
DC4930,600,28.562940,77.070740,Shahbad Mohammad Pur School,600
DC4931,601,28.559648,77.071398,Shahbad Mohammad Pur Village,601
DC4932,602,28.562780,77.070720,Shahbad Mohammad Pur School,602
DC4933,603,28.567543,77.066617,Dwarka Sec-8 Metro Station,603
DC4936,604,28.568520,77.067880,Dwarka Sec-8,604
DC4937,605,28.572520,77.069160,Bagdola Village,605
DC4938,606,28.575800,77.071340,Dwarka Sec-8 DTC Depot,606
DC4939,607,28.576500,77.075940,National Malariya Research Centre (Dwarka),607
DC4940,608,28.578180,77.077080,Dada Dev Mandir,608
DC4941,609,28.578760,77.076160,National Malariya Research Centre (Dwarka),609
DC4942,610,28.581500,77.070300,Royal Residency (Dwarka),610
DC4943,611,28.583670,77.067010,Munirka Flats (Dwarka),611
U99908,612,28.594499,77.073519,Dwarka Sec 1,612
DC4846,613,28.596870,77.080944,Sulabh International Centre,613
DC4844,614,28.600840,77.081990,Mahaveer Enclave III,614
DC4843,615,28.603530,77.082660,Dashrath Puri,615
DC4841,616,28.606540,77.081110,Vijay Enclave (Palam-Dabri Road),616
DC4839,617,28.608043,77.081954,Dabri Village,617
U00781,618,28.612833,77.086091,Dabri Crossing Dwarka Road,618
U00807,619,28.614460,77.086985,C2D Janakpuri,619
U00810,620,28.616659,77.087976,C4E Janakpuri,620
U00820,621,28.621222,77.088818,C2B Janak Puri,621
DC4065,622,28.622350,77.093650,Bharti College,622
DC4066,623,28.623200,77.096150,Virender Nagar / Dilli Haat,623
DC4944,624,28.625410,77.101090,Hari Nagar Depot,624
U00967,625,28.627917,77.100067,G Block Hari Nagar,625
U00950,626,28.631133,77.098567,Fateh Nagar,626
U00928,627,28.635737,77.096692,Tilak Nagar Jail Road,627
DC3534,628,28.635322,77.092959,Tilak Nagar Crossing (Najafgarh Road),628
DC3535,629,28.633859,77.088830,Janak Puri Check Post,629
U00773,630,28.632306,77.084585,B2A Janakpuri,630
U00712,631,28.630488,77.080047,Janak Puri District Centre,631
U00679,632,28.629119,77.076482,Dholi Piao,632
U00617,633,28.626449,77.069690,Vikaspuri Crossing,633
U00600,634,28.624597,77.064980,Uttam Nagar East Metro Station,634
U00779,635,28.589983,77.087017,Mangla Puri Terminal,635
U00732,636,28.591000,77.081400,Health Centre,636
U00714,637,28.592833,77.079486,Dwarka Crossing / Maharaja Agrasen Hospital,637
U99641,638,28.594283,77.073867,Dwarka Sec 1,638
U00626,639,28.595421,77.070134,J M International School,639
U00589,640,28.597335,77.064944,Dwarka Sec 2-6,640
U00558,641,28.599779,77.061168,Madhu Vihar,641
U00526,642,28.603800,77.055100,Rajapuri,642
DC3647,643,28.605032,77.051737,Matiyala Xing,643
U00469,644,28.604518,77.046323,DPS Matiyala,644
U00459,645,28.602648,77.043175,Dwarka Sec 3-4,645
U00449,646,28.602551,77.040932,Dwarka Sec 13-3 Xing,646
U00439,647,28.603988,77.038876,MRV School Sec 13 Dwarka,647
U00424,648,28.605684,77.036274,Dwarka Sec 13,648
U00416,649,28.607416,77.035099,NSIT (Netaji Subhas Institute) / Sulahkul Mandir,649
DC3626,650,28.610723,77.034031,Suraj Vihar,650
U00389,651,28.618926,77.029585,Kakrola More,651
U00377,652,28.619809,77.024876,Kakrola Bridge,652
U00367,653,28.619701,77.017665,Nangli Dairy,653
DC4881,654,28.618803,77.015219,Chhathh Ghat Park,654
U00354,655,28.618083,77.013083,Arjun Park,655
U00329,656,28.616258,77.008012,Nangli Sakrawati Crossing,656
DC3562,657,28.614630,77.003904,Nangli Sakrawati,657
U00293,658,28.613536,76.999497,Sai Baba Mandir,658
U00285,659,28.612929,76.995552,Power House NajafGarh,659
U00261,660,28.612509,76.992360,Tuda Mandi,660
U03064,661,28.586388,77.253259,Nizamuddin Railway Station,661
U03061,662,28.582500,77.252700,Rajdoot Hotel,662
U03122,663,28.574490,77.256841,Ashram (Hari Nagar),663
U03063,664,28.566750,77.253117,Sri Niwaspuri / PG DAV College Lajpat Nagar,664
U99867A,665,28.515290,77.281062,ESI Hospital Okhla,665
U03362,666,28.516400,77.283500,Central Work Shop II,666
DC1102,667,28.518350,77.284767,Okhla Depot IV CWS II,667
DC3707,668,28.666960,77.227456,ISBT Kashmere Gate Terminal,668
U02517,669,28.666662,77.219260,Tees Hazari Court,669
U99922,670,28.667100,77.214900,St Stephen Hospital,670
U02411,671,28.666336,77.208872,Ice Factory (Rani Jhansi Road),671
U02348,672,28.669035,77.204663,Roshnara Road,672
U02235,673,28.671700,77.200700,Roshnara Bagh,673
U02246,674,28.677400,77.201633,Clock Tower,674
U02208,675,28.680400,77.199300,Shakti Nagar,675
U02143,676,28.679846,77.195746,Shakti Nagar Nangia Park,676
U02040,677,28.677233,77.188967,Chowki No 2 / Gulabi Bagh Crossing,677
U02023,678,28.674998,77.188525,Gulabi Bagh,678
U01992,679,28.672401,77.186038,Shastri Nagar A Block,679
U01945,680,28.671105,77.184219,Subhadra Colony,680
U01912,681,28.669997,77.181336,Shastri Nagar Metro Station,681
U01837,682,28.671100,77.176050,Shastri Nagar E Block,682
U01790,683,28.671600,77.173000,Shastri Nagar Shiv Mandir,683
U01727,684,28.673633,77.168983,Inderlok Metro Station,684
U01664,685,28.680933,77.165433,Kanhaiya Nagar,685
U01627,686,28.686100,77.162900,B3 Keshav Puram,686
U01621,687,28.687583,77.162267,B-4 Keshav Puram,687
U01014,689,28.694632,77.105225,Mangol Pur School (Kanjhawla Road),689
U00934,690,28.698239,77.097085,Avantika Xing,690
U00658,692,28.715500,77.074300,Rohini Sec 20/21 More,692
DC4512,693,28.665305,76.943439,Satyapuram Jharoda,693
DC4514,694,28.658600,76.947900,Jharoda Nala Crossing,694
DC4493,695,28.655083,76.950083,Jharoda Kalan,695
DC4494,696,28.650850,76.953100,Jharoda Village,696
DC4495,697,28.646688,76.956119,S.S. Kanya Vidhyalaya,697
DC4496,698,28.642863,76.958365,PTS Jharoda,698
DC4497,699,28.638805,76.960707,CRPF Jharoda,699
DC4503,700,28.633583,76.963783,Sainik Enclave Jharoda,700
DC4498,701,28.630450,76.965683,Saraswati Kunj Jharoda,701
DC4504,702,28.627867,76.967333,Naveen Palace,702
DC4499,703,28.623817,76.970483,Baba Haridass Nagar,703
DC4500,704,28.619058,76.974408,New Anaj Mandi,704
DC4501,705,28.615500,76.976417,Surakh Pur Crossing,705
U00598,706,28.626011,77.068195,Uttam Nagar,706
DC3691,707,28.619633,77.079183,A-3 Janak Puri,707
U00766,708,28.621900,77.084200,C-2 Janakpuri,708
U00825,709,28.621752,77.092199,Bharti College / C2B Janak Puri,709
U00818,710,28.617217,77.088345,C4E Janakpuri,710
U00870,711,28.615417,77.092583,Central Market C3 Janakpuri,711
U00903,712,28.616333,77.095250,C-4H Janakpuri,712
U00939,713,28.614800,77.097700,Janakpuri C-5A,713
U00956,714,28.610951,77.098914,Desu Colony Janakpuri,714
U01069,715,28.618223,77.112115,Zunk Market,715
U01100,716,28.622267,77.117100,Gulab House,716
U01115,717,28.623950,77.118600,Bobby Soap,717
U01125,718,28.625367,77.119750,PS Mayapuri,718
U01175,719,28.629000,77.122817,Metal Forging,719
U01217,720,28.634617,77.127633,Government Press,720
U01231,721,28.636850,77.128350,Mayapuri Depot,721
U01305,722,28.626883,77.135333,Naraina Vihar / Indra Market,722
U01348,723,28.631400,77.138400,Payal Cinema,723
U01436,724,28.641383,77.145217,Loha Mandi,724
U01494,725,28.644717,77.147667,Bentax,725
U01466,726,28.649050,77.151300,Naraina Depot,726
U01520,727,28.650051,77.153678,Pandav Nagar,727
U01549,728,28.651600,77.156100,Shadipur Colony,728
U01581,729,28.651500,77.158700,Shadipur Metro Station,729
U01663,730,28.647950,77.164783,West Patel Nagar,730
U01729,731,28.645400,77.168900,South Patel Nagar (Metro Station),731
U01769,732,28.642967,77.173150,East Patel Nagar,732
U01843,733,28.642500,77.177300,Rajendra Place,733
U99926A,734,28.643150,77.181917,Telephone Exchange Karol Bagh,734
U02034,735,28.644200,77.189000,Karol Bagh Metro Station,735
U02113,736,28.644800,77.193400,Pusa Road Petrol Pump Sadhu Vaswani Marg,736
U02237,737,28.644000,77.200983,Meghdoot Bhawan,737
U02285,738,28.644100,77.203600,Videocon Tower,738
U02396,739,28.646179,77.208232,Paharganj Police Station,739
U02482,740,28.645200,77.213300,Dispensary Paharganj,740
U02693,741,28.643383,77.225733,Ajmeri Gate / Kamla Market,741
U02744,742,28.642068,77.228325,JLN Marg,742
U02781,743,28.641166,77.230002,Zakir Husain College,743
U02820,744,28.641834,77.233136,Turkman Gate / GB Pant Hospital,744
U02841,745,28.641200,77.235016,Delite Cinema,745
U02885,746,28.640730,77.238584,Delhi Gate,746
U02856,747,28.653961,77.236450,Red Fort,747
U02839,748,28.661944,77.234569,GPO,748
U02786,749,28.665331,77.230123,Guru Govind Singh University (Kashmere Gate),749
U02785,750,28.666756,77.229348,ISBT Kashmere Gate,750
U02681,751,28.666517,77.225883,Mori Gate Terminal,751
DC5262,752,28.795005,77.041136,Bawana Sec 1 Cluster Depot,752
DC4531,755,28.815521,77.058038,Delhi Jal Board Bawana,755
DC4557,756,28.819594,77.063606,Sannoth Crossing / Ghoga Crossing,756
DC5260,757,28.815610,77.070980,Sannoth Village,757
DC5103,758,28.809729,77.087395,Holambi Kalan JJ Colony,758
DC5362,759,28.809404,77.098773,Holambi Kalan Fatak,759
DC4997,760,28.809357,77.107460,Holambi Kalan Crossing,760
DC5008,761,28.800239,77.114663,Jeet Farm,761
DC5009,762,28.797139,77.117385,Holambi Khurd Crossing,762
DC5010,763,28.798040,77.127346,Alipur Garhi,763
DC5011,764,28.797253,77.133138,Alipur Village,764
DC4808,765,28.802200,77.138600,Pwd Office,765
DC4965,766,28.811931,77.135652,Bakauli Village,766
DC4966,767,28.824805,77.131830,Khampur Village,767
DC5417,768,28.835211,77.128460,Tikri Khurd Crossing,768
DC5416,769,28.835878,77.123800,Tikri Khurd,769
U03656,770,28.646328,77.314904,Anand Vihar ISBT Terminal,770
U03710,771,28.660523,77.319926,Ram Prastha Crossing,771
U03713,772,28.663552,77.320362,Ram Prastha Temple,772
U03724,773,28.666954,77.321483,Surya Nagar (Gazipur Road),773
DC3662,774,28.676241,77.321331,Shahdara Border GT Road,774
U03689,775,28.676186,77.317518,Jhilmil Xing,775
U03647,776,28.675883,77.311800,Dilshad Garden GT Road,776
U99890,777,28.675817,77.309217,Telephone Exchange,777
U03515,778,28.675479,77.300119,Mansarovar Park Metro Station,778
U03296,779,28.672000,77.275000,Welcome Colony Metro Station,779
U03241,780,28.671799,77.273380,Welcome Colony,780
U03198,781,28.670722,77.266485,Seelampur Metro Station,781
U03167,782,28.670717,77.261917,Dharam Pura,782
U03125,783,28.672300,77.257100,Shastri Park,783
DC3593,784,28.673195,77.251804,Shastri Park,784
U03020,785,28.673820,77.248024,Shyam Giri Mandir,785
DC3594,786,28.674167,77.243433,Shastri Park DMRC Depot,786
U02948,787,28.673433,77.241183,Shastri Park Metro Depot,787
DC3595,788,28.669230,77.228774,ISBT Bridge,788
U02382,789,28.662700,77.207500,Azad Market,789
U02319,790,28.660752,77.204049,Bara Hindu Rao,790
U02291,791,28.657229,77.203685,Model Basti,791
U02202,792,28.655331,77.198831,Guru Govind Singh Marg,792
U02121,793,28.657540,77.194648,Tibiya College,793
DC3657,794,28.659086,77.191154,Ram Jas Road,794
U99836,795,28.659825,77.188866,Liberty Cinema,795
U01968,796,28.661182,77.185019,Sarai Rohilla Govt Qtrs (Rohtak Road),796
U01925,797,28.662538,77.182083,Sarai Rohila (Rohtak Road),797
U01812,798,28.665198,77.174292,Anand Parvat Industrial Area,798
U01744,799,28.666350,77.170027,Daya Basti Flyover,799
U01672,800,28.668391,77.165402,Zakhira Flyover,800
U01533,801,28.671287,77.156585,Ashok Park,801
U01491,802,28.671724,77.153627,Ram Pura,802
U01459,803,28.672734,77.146807,Punjabi Bagh Power House,803
U01417,804,28.673121,77.143689,Punjabi Bagh Terminal (Rohtak Road),804
U03305,805,28.702199,77.278463,C 4 Yamuna Vihar,805
U03272,806,28.702588,77.273744,Yamuna Vihar Brijpuri,806
U03242,807,28.702752,77.271309,B-Block Yamuna Vihar,807
U99761,808,28.703351,77.263706,Bhajanpura,808
U03130K,809,28.703900,77.256200,Khajuri,809
DC3588,810,28.699200,77.255533,Garhi Maidu,810
U03097,811,28.695121,77.254951,Gamri Extn Pusta No.5,811
U03080,812,28.689450,77.254167,Kartar Nagar,812
U03086,813,28.686317,77.254567,Jagjit Nagar,813
U03098,814,28.683767,77.255217,Pusta No-2,814
DC3590,815,28.679983,77.256183,New Usman Pur Pusta No-1,815
DC3591,816,28.677800,77.256783,Zero Pusta,816
DC3592,817,28.674017,77.256300,Shastri Park Pusta Road,817
U02698,818,28.672284,77.225834,Ludlow Castle,818
DC3654,819,28.676749,77.224848,Exchange Store / Civil Lines Metro Station,819
DC0016,820,28.679610,77.223960,IP College,820
U02628,821,28.683783,77.222172,Old Secretariat (Postal Account Office),821
DC0017,822,28.687802,77.221442,Vidhan Sabha Metro Station,822
U02609,823,28.690613,77.221168,Khyber Pass,823
U02571,824,28.693646,77.218432,Mall Road,824
U02504,825,28.695213,77.214096,Vishwa Vidyalaya Metro Station,825
U02461,826,28.696149,77.211705,INS Hostel,826
U02380,827,28.698224,77.207503,GTB Nagar / Haqiqat Nagar,827
U02663,829,28.638657,77.224181,Shivaji Park,829
U02634,830,28.632651,77.223088,Super Bazar,830
U02543,831,28.628567,77.216783,Palika Kendra,831
U02492,832,28.625507,77.214320,P S Parliament / Jantar Mantar,832
U02478,833,28.620515,77.212714,Aakashwani Bhawan,833
U02497,834,28.615000,77.212400,Krishi Bhawan,834
U02481,835,28.612588,77.212235,Udyog Bhawan,835
U02436,836,28.609631,77.209798,Sunehri Masjid/ G Block,836
U02456,837,28.605100,77.211100,Krishan Menon Marg,837
U99974A,838,28.599917,77.211317,PS Tuglak Road,838
U99871,839,28.594900,77.212000,Tughlaq Crescent,839
U02480,840,28.586708,77.212779,SJ Madrasa,840
U02475,841,28.584236,77.212605,SJ Airport,841
U02441,842,28.575900,77.210200,INA Colony,842
U02417,843,28.574012,77.209568,Kidwai Nagar,843
U02385,844,28.566983,77.207950,AIIMS,844
U02381,845,28.562700,77.207700,Yusuf Sarai,845
U02362,846,28.557200,77.206800,Green Park,846
U02326,847,28.552900,77.205100,Hauz Khas,847
U02290,848,28.549800,77.203800,Padhmini Enclave,848
U02258,849,28.546200,77.202500,IIT Gate,849
U02279,850,28.543924,77.205014,Panchsheel Club / Sarvpriya Vihar,850
U02429,851,28.542800,77.209567,Bhavishya Nidhi Enclave,851
U02460,852,28.537009,77.209898,Begumpur (Malviya Nagar),852
U02439,853,28.535406,77.208553,Malviya Nagar,853
U02302,854,28.532600,77.204600,Aurobindo College,854
U02223,855,28.530317,77.199633,Geetanjali Enclave,855
U02243,856,28.529417,77.201400,PNB Geetanjali,856
U02287,857,28.528000,77.205000,Saket A Block (Malviya Nagar Metro Station),857
U02412,858,28.528200,77.209100,Press Enclave,858
U02462,859,28.528500,77.211900,HaujRani / MaxHospital,859
U02519,860,28.529700,77.215800,Hauj Rani,860
U02561,861,28.530183,77.218350,Khirki Village,861
DC3716,862,28.531450,77.223883,PSRI,862
U02718,863,28.532283,77.226950,Vocational College,863
U99870,864,28.533050,77.230667,Sheikh Sarai Phase II,864
U02793PV,865,28.527000,77.231200,Pushpa Bhawan,865
U02762,866,28.524691,77.230377,Madangir DDA Flats,866
U02722,867,28.515588,77.227280,Ambedkar Nagar Terminal,867
U02761,868,28.515267,77.228400,Ambedkar Nagar Depot,868
U02834,869,28.514000,77.234400,Khanpur Extension / Devli Xing,869
U02888,870,28.512900,77.238900,Vayu Sena Bad (Tigri),870
U02957,871,28.512400,77.243300,Batra Hospital / Satya Narayan Mandir,871
U03033,872,28.512167,77.248667,Hamdard Nagar / Sangam Vihar,872
U02349,873,28.621400,77.206400,Kendriya Terminal (Pt. Pant Marg),873
U02322,874,28.621017,77.205283,Kendriya Terminal / Gurudwara Rakab Gunj,874
U02277,875,28.622200,77.203100,Talkatora Road,875
U02149,876,28.622396,77.196557,Dr. RML Hospital,876
U02118,877,28.621254,77.194205,Talkatora Stadium Garden,877
U02072A,878,28.611000,77.190800,Sardar Patel Road Xing (11 Murti),878
U02039,879,28.607800,77.189100,Palika Kutumb,879
U01951,880,28.603917,77.184500,Bhartiya Sadhu Samaj,880
U01860,881,28.600783,77.178500,Railway Colony (Sardar Patel Marg),881
U01826,882,28.599400,77.175800,Bapu Dham,882
U01765,883,28.597000,77.171300,Officer Enclave S.P Marg,883
U01635,884,28.592721,77.163492,Dhaula Kuan,884
U01578,885,28.592403,77.159084,Golf Club,885
DC3649,886,28.595720,77.150948,R R Line,886
U01356,887,28.600200,77.139733,S O Flats Carriappa Marg,887
NS0257,888,28.602650,77.133483,Thimiyan Park,888
U01208,889,28.605200,77.126575,Kirbi Place,889
U01163,890,28.606633,77.123233,Supply Depot,890
U01080,891,28.610400,77.113800,Janak Setu,891
U01023,892,28.613845,77.106342,Lajwanti Garden,892
U01004A,893,28.610606,77.103690,D Block Janak Puri,893
U00965,894,28.609254,77.099600,SagarPur Vashisht Park,894
U00953,895,28.610901,77.098786,Desu Colony Janakpuri,895
U00938J5A,896,28.615500,77.097000,C-5A Janakpuri,896
U00863,897,28.615250,77.092367,Central Market C3 Janakpuri,897
U00764,898,28.621600,77.084100,C-2 Janakpuri,898
DC3692,899,28.619583,77.079267,A-3 Janak Puri,899
U00685,900,28.617945,77.077135,C1 Janak Puri,900
U00653,901,28.619637,77.073604,Jivan park,901
U00624,902,28.621389,77.070002,Tilak Pul,902
U00603,903,28.624000,77.068009,Uttam Nagar / A1 Janak Puri,903
U00918,904,28.636324,77.095744,Tilak Nagar Terminal,904
U00555,905,28.623129,77.061189,Uttam Nagar,905
U00535,906,28.621893,77.056719,Prem Nagar,906
U00501,907,28.621079,77.052669,Om Vihar,907
DC3538,908,28.620776,77.049872,Kiran Garden,908
U00463,909,28.620222,77.045520,Nawada,909
U00452,910,28.620049,77.039163,Mohan Garden,910
DC3541,911,28.619263,77.033731,Sewak Park Dwarka More Metro Station,911
U00213,914,28.609470,76.983029,Police Station Najafgarh,914
U00193,915,28.611491,76.977910,Dhansa Stand,915
DC3547,916,28.610938,76.974010,Khera More,916
U00155,918,28.609178,76.967157,Nanak Piyau,918
U00112,919,28.608542,76.958778,Indra Service Station,919
DC4745,920,28.608115,76.951172,Mitraon Crossing,920
U00085,921,28.608068,76.947324,Mitraon Village,921
DC4474,922,28.616066,76.896431,Mundhela Khurd School,922
DC4471,923,28.617177,76.893091,Mundhela Khurd Village,923
DC4819,924,28.830960,77.199706,Jhingola Village,924
DC4820,925,28.831184,77.188020,Jhingola Crossing,925
DC4821,926,28.834531,77.182394,Akbar Pur Majra,926
DC4822,927,28.832511,77.179184,Akbar Pur Majra Crossing,927
DC4823,928,28.829420,77.178662,Bakhtawar Pur Garhi,928
DC4824,929,28.825833,77.174563,Bakhtawar Pur Primary School,929
DC4825,930,28.822080,77.171555,Bakhtawar Pur Village,930
DC4826,931,28.818615,77.166323,Triveni Colony,931
DC4827,932,28.814533,77.161217,Bakhtawar Pur School,932
DC4828,933,28.803360,77.143775,Palla More,933
DC4831,934,28.793717,77.142333,Mcd Store,934
U99993,935,28.725200,77.163400,Jahangirpuri GT Road,935
U02406,936,28.667228,77.209036,Ice Factory (Rani Jhansi Road),936
U03551,937,28.493092,77.303489,Badarpur Border (T),937
U03996A,938,28.497367,77.302117,Jaitpur Mor,938
U03519,939,28.499178,77.299004,Badarpur M B Road / Rajiv Gandhi Stadium,939
U03465,940,28.500583,77.293883,Prehlad Pur,940
U03434,941,28.501567,77.289765,Surajkund Crossing,941
U03361,942,28.502300,77.283300,Lal Kuan,942
U03331,943,28.503600,77.280100,Prem Nagar,943
DC0138,944,28.506100,77.278350,Maa Anand Mayee Marg,944
U99988A,945,28.510950,77.280917,Tehkhand Depot DTC,945
DC3527,946,28.514300,77.281333,ESI Hospital,946
DC5101,947,28.801906,77.096118,Holambi Kalan Terminal,947
DC5099,948,28.799903,77.096104,Holambi Khurd,948
DC5097,949,28.795403,77.097915,Holambi Khurd DRID College,949
DC5095,950,28.795840,77.110410,Minda Farm,950
U01868,951,28.707667,77.180271,Azadpur Terminal,951
U01966,952,28.706127,77.185301,Model Town III,952
U02070,953,28.704282,77.190629,Model Town II,953
U02122,954,28.703017,77.193837,Alpana Cinema (Model Town Mtr Stn),954
U02263,955,28.699589,77.202973,New Police Line,955
U02678,956,28.676617,77.225033,Exchange Store / Civil Lines Metro Station,956
U02862,957,28.658080,77.236946,Red Fort,957
U02884,958,28.650847,77.238458,Jama Masjid,958
U02922,959,28.644143,77.240506,Darya Ganj Golcha Cinema,959
U02926,960,28.639959,77.238071,Delhi Gate (JLN Marg),960
U02851,961,28.640100,77.234817,LNJP Hospital,961
U02779,962,28.641133,77.229676,Zakir Husain College,962
U02738,963,28.642100,77.227850,JLN Marg,963
U02706,964,28.640867,77.225733,Vivekanand Marg / Minto Road,964
DC5230,966,28.699642,77.033587,Rani Khera Depot 2,966
DC4960,967,28.697794,77.027894,Rani Khera Depot Crossing,967
U99813,968,28.704236,77.027661,Rani Khera Village,968
U99789,969,28.709239,77.027741,Rani Khera School / Bhagya Vihar,969
U99809,970,28.712817,77.027833,Mubarak Pur Crossing,970
U99799,972,28.725017,77.029167,Shaheed Bhagat Singh Nagar,972
U00401,973,28.731617,77.032350,Karala Crossing,973
U00426,974,28.731583,77.036983,Karala Village,974
U99700,975,28.730800,77.039800,Karala School,975
U00466,976,28.728800,77.045600,Rama Vihar,976
U00482,977,28.727633,77.048950,Sukhbeer Nagar,977
U00516,978,28.726567,77.053367,Karala Patshala,978
U99608,979,28.724983,77.058433,Rajeev Nagar,979
U99614,980,28.721201,77.065981,Begum Pur (Kanjhawala Road),980
U00621,981,28.718800,77.069767,Rohini Sec-21,981
U00657,982,28.715887,77.074077,Rohini Sec 20/21 More,982
U00683,983,28.714336,77.077075,Pooth Kalan,983
DC3748,984,28.712467,77.080633,Brahm shakti hospital,984
U00763,985,28.706667,77.084217,Krishna Vihar,985
DC3749,986,28.704150,77.087483,Buddh vihar,986
U00831,987,28.702762,77.089612,Mangol Puri Y Block,987
U00892,988,28.700117,77.094277,Mangol Pur Khurd,988
U00931,989,28.698384,77.097225,Avantika Xing,989
U00961,990,28.695671,77.101095,Mangolpur Kalan Village,990
U01021,991,28.694414,77.106315,Mangol Pur School (Outer Ring Road),991
U01039,992,28.695494,77.108823,Rohini Depot III,992
U01060,993,28.696260,77.111428,Puspanjali Enclave,993
U01093,994,28.697446,77.115993,Kali Mata Mandir,994
U01126,995,28.698786,77.118846,Deepali Chowk,995
U01188,996,28.700141,77.124720,Saraswati Vihar C Block,996
U01248,997,28.701935,77.128048,Madhuban Chowk Outer Ring Road,997
U01289,998,28.708375,77.134799,RU Block Power House,998
U01331,999,28.710640,77.136670,Pitampura RU Block,999
U01354,1000,28.715019,77.138989,Uttri Pitam Pura,1000
U01358,1001,28.716490,77.139320,Pitam Pura BV Block,1001
U01372,1002,28.721550,77.140383,Haidarpur Water Works,1002
U99995,1003,28.725150,77.142290,PS Badli,1003
DC5131,1004,28.727265,77.143241,Jail Road Rohini Sec 18,1004
DC5129,1005,28.731937,77.140125,Badli Village,1005
DC5127,1006,28.735794,77.137389,Rohini Sec 18 Block,1006
DC5125,1007,28.738840,77.135808,Rohini Sec 18,1007
U02000,1008,28.526517,77.186050,Qutub Minar,1008
U02048,1009,28.528300,77.189700,T B Hospital,1009
U02090,1010,28.529833,77.192117,DDA Flats Lado Sarai,1010
DC5148,1011,28.532964,77.195504,PTS,1011
DC5149,1012,28.535351,77.196849,MMTC / Adhchini Village,1012
DC5150,1013,28.537823,77.198070,Adhchini Village,1013
DC5151,1014,28.541141,77.199500,Mothers International School,1014
DC5152,1015,28.543571,77.200710,IIT Gate,1015
U02253,1016,28.545850,77.201967,IIT Gate (Aurobindo Marg),1016
U02281,1017,28.549200,77.203400,Padmani Enclave,1017
U02315,1018,28.553000,77.204900,Hauz Khas,1018
U02357,1019,28.558583,77.206733,Green Park,1019
U02377,1020,28.562600,77.207400,Yusuf Sarai,1020
U02379,1021,28.567250,77.207733,Safdurjung Hospital / AIIMS,1021
U02416,1022,28.575667,77.209735,Kidwai Nagar,1022
U02471,1023,28.584411,77.212295,SJ Airport,1023
U02476,1024,28.588591,77.212721,S J Madrasa,1024
U02502,1025,28.593162,77.214330,Prithvi Raj Road,1025
U02553,1026,28.597353,77.218190,Prithvi Raj Road Crossing,1026
U02554,1027,28.602055,77.217749,Claridges Hotel,1027
U02559,1028,28.611677,77.218376,National Museum,1028
U02563,1029,28.614678,77.218542,National Archives,1029
U02576,1030,28.617942,77.218662,Windsor Place,1030
DC5153,1031,28.623775,77.219113,Western Court,1031
U02584,1032,28.628530,77.219448,Indian Oil Bhawan,1032
U02654,1033,28.638674,77.223986,Shivaji Park,1033
U02697,1034,28.641550,77.226150,Vivekanand Marg / Minto Road,1034
U02712,1035,28.643042,77.226021,PS Kamla Market,1035
U02703,1036,28.644083,77.224050,Ajmeri Gate / Kamla Market,1036
U01315,1038,28.667414,77.135796,Punjabi Bagh Terminal,1038
U01261,1039,28.663553,77.131207,Punjabi Bagh Club,1039
U01233,1040,28.658396,77.128719,ESI Hospital,1040
U01196,1041,28.654765,77.125441,Rajdhani College / Raja Garden,1041
U01211,1042,28.645609,77.127065,Rajouri Garden Market,1042
U01257,1043,28.638603,77.129843,Mayapuri Chowk (Ring Road),1043
U01308,1044,28.627517,77.134183,Naraina Vihar,1044
U01325,1045,28.618591,77.136612,Naraina Village,1045
NS0253,1046,28.612925,77.137272,COD Ring Road,1046
U01373,1047,28.607394,77.141632,Barar Square,1047
U99892A,1048,28.605367,77.147433,Garrison Engg.,1048
U99893A,1049,28.604150,77.155333,RR Line,1049
U01628,1050,28.599544,77.162493,Dhaula Kuan (Ring Road),1050
DC0013,1051,28.588732,77.170023,Satya Niketan,1051
U01778,1052,28.585103,77.172442,Gurudwara Moti Bagh,1052
U01805,1053,28.581943,77.174262,South Moti Bagh (Ring Road),1053
U01817,1054,28.577432,77.173731,South Moti Bagh,1054
U01777,1055,28.575756,77.172446,R. K. Puram Sec-12,1055
U01797,1056,28.573643,77.173644,Sangam Cinema,1056
DC3668,1057,28.570222,77.173110,RK Puram Sec-10,1057
U01832,1058,28.566602,77.176331,Mohan Singh Market,1058
U01848,1059,28.564697,77.178246,R K Puram Sec-1 2,1059
U01852,1060,28.563268,77.178557,RK Puram Sec 1,1060
U01835,1061,28.561227,77.176315,R K Puram Nab,1061
U01800,1062,28.558583,77.173811,Munirka Village (T),1062
U01792,1063,28.556991,77.174527,Munirka Family Planning,1063
U01847,1064,28.555501,77.176660,Munirka DDA Flats,1064
U01900,1065,28.552791,77.180880,ISTM,1065
U01980,1066,28.550003,77.185541,IIT Hostel,1066
U02043,1067,28.548571,77.189100,Jia Sarai,1067
U02151,1068,28.545957,77.196984,IIT Gate,1068
U02798PB,1069,28.528153,77.231354,Pushpa Bhawan,1069
DC0134,1070,28.528442,77.255736,DDA Flats Kalkaji,1070
U03132,1071,28.527958,77.257446,DDA Flats Kalka Ji,1071
U03145,1072,28.530729,77.258493,DDA Market kalka Ji,1072
U03150,1073,28.531872,77.258961,DDA Flats Kalka Ji,1073
U03154E,1074,28.533575,77.259665,Govindpuri Ext Gali No 16,1074
U03155,1075,28.534824,77.260130,Rampuri Gali No 13,1075
U03163,1076,28.537641,77.261185,Govindpuri Gali No 5,1076
U03164,1077,28.538625,77.261545,Ram Puri / Govind Puri,1077
U03166,1078,28.539533,77.261894,Govind Puri,1078
U03182,1079,28.545117,77.263917,Govind Puri Metro Station,1079
U03173,1080,28.547767,77.262833,Kalkaji Mandir (MaaAnandmayeeMarg),1080
U03180,1081,28.551166,77.263849,Kalkaji Mandir,1081
U03183,1082,28.552086,77.264157,NSIC,1082
U03195,1083,28.555533,77.265167,Laghu Udyog Sansthan(ModiMill),1083
U03159,1084,28.560733,77.260617,SNPD,1084
U03141,1085,28.561933,77.258033,East of Kailash C-Block,1085
U03106,1086,28.561917,77.255567,East of Kailash B-Block,1086
U03046,1087,28.562100,77.251200,Garhi Gaon,1087
U03041LN,1088,28.564300,77.250100,Lajpat Nagar Crossing,1088
U03062,1089,28.567384,77.252931,PG DAV College / Sri Niwaspuri,1089
U03074,1090,28.569103,77.253865,Nehru Nagar,1090
U03134,1091,28.573367,77.257533,Ashram (Hari Nagar),1091
U02877,1092,28.601413,77.237880,Golf Club / Sunder Nagar,1092
U99849,1093,28.605713,77.237097,Kaka Nagar,1093
DC4456,1094,28.558043,76.974025,Pandwala Crossing,1094
DC4772,1095,28.553981,76.973148,Osho Dhyan Mandir Jhatikra Road,1095
DC4446,1096,28.543431,76.970745,Daulat Pur Crossing,1096
DC4774,1097,28.522000,76.966004,Jhatikra Village,1097
U00987,1098,28.623900,77.101700,Hari Nagar Depot,1098
U01026,1099,28.625100,77.106867,DA Block Hari Nagar,1099
U01056,1100,28.625200,77.110800,Hari Nagar Shaheed Pawan Sahni Chowk,1100
U01053,1101,28.628000,77.110700,DDU Hospital,1101
U01063,1102,28.631450,77.111967,Beriwala Bagh,1102
U01082,1103,28.631000,77.114900,Swarg Ashram,1103
U01122,1104,28.630900,77.119600,LIG Flats,1104
DC3909,1105,28.630683,77.124267,Hari Nagar (Mohan Mandir) Mayapuri,1105
U01524,1107,28.650133,77.153350,Pandav Nagar,1107
U99983A,1108,28.643211,77.182029,Telephone Exchange Karol Bagh,1108
U02310,1109,28.641650,77.204717,Panchkuian Road Banwari Lal Hospital,1109
U02306,1110,28.639967,77.204483,Balmiki Mandir Marg,1110
U02276,1111,28.637432,77.202928,PS Mandir Marg,1111
U03023,1112,28.620212,77.248532,Indraprastha Depot,1112
U03015,1113,28.624567,77.247083,IP Power House (ITO Ring Road),1113
U03048,1114,28.628300,77.251400,Delhi Secretariat,1114
U03157,1115,28.628317,77.260650,Rainy Well,1115
U03293,1116,28.629700,77.277067,Laxmi Nagar / Shakarpur Crossing,1116
U03317,1117,28.627433,77.279283,Shakarpur School Block,1117
U03379,1118,28.621017,77.285233,Ganesh Nagar,1118
U03393,1119,28.619100,77.286333,Mother Dairy,1119
U03407,1120,28.616400,77.288100,Patparganj,1120
U03431,1121,28.614700,77.290300,P S Pandav Nagar,1121
U03464,1122,28.613600,77.294100,Shashi Garden Xing,1122
U03474,1123,28.613300,77.295600,Pocket-5 Mayur Vihar Ph-1,1123
U03498,1124,28.613000,77.297700,ITI Khichiripur,1124
U03539,1125,28.613200,77.302000,Kotla Village,1125
U03604,1126,28.612817,77.306183,Trilokpuri 13 Block,1126
U03637,1127,28.612983,77.312500,Chand Cinema,1127
U03674,1128,28.613567,77.316317,Super Bazar,1128
U03706,1129,28.614764,77.318894,Kalyan Puri Crossing (Chand Cinema Road),1129
U03745,1130,28.613051,77.322989,Kondali Old,1130
U03711,1131,28.608750,77.320050,Dallu Pura,1131
U03734,1132,28.605317,77.322683,Fire Station,1132
U03766,1133,28.601800,77.327350,Mayur Vihar Phase 3 Crossing,1133
U03780,1134,28.602967,77.329133,New Kondali A1 Crossing,1134
U03802,1135,28.606133,77.333967,Bharti Public School,1135
U03809,1136,28.608717,77.337150,Mayur Vihar Phase III A1 Block,1136
U03822,1137,28.611833,77.339833,CRPF Camp,1137
DC3942,1138,28.618268,77.335849,Mayur Vihar Phase III (T) Paper Market,1138
DC5397,1139,28.810280,77.076009,Bawana Sec 5 Cluster Depot G2,1139
DC5450,1140,28.800838,77.084369,Holambi Crossing,1140
DC5451,1141,28.794236,77.073733,Pragati Power Station Bawana,1141
DC5452,1142,28.784427,77.063506,Rajeev Ratan Aawas Bawana,1142
DC5453,1143,28.786600,77.059030,Ganga Toli Mandir Bawana,1143
DC5454,1144,28.790430,77.052250,Sec 1 / 2 Bawana Indst Area,1144
DC4561,1145,28.803302,77.042627,DSIDC Bawana Sec 2,1145
U00420,1146,28.801841,77.039290,Bawana Soap Factory,1146
DC4562,1147,28.800950,77.037380,Bawana Dispensary,1147
U99646,1148,28.799973,77.035520,Bawana Village Chowk,1148
DC4564,1149,28.797678,77.034438,Primary School,1149
DC4565,1150,28.797793,77.031678,Panchayat Ghar,1150
DC4566,1151,28.794782,77.030053,Ishwar Colony,1151
DC4567,1152,28.787407,77.025648,Krishna Vihar,1152
DC4568,1153,28.784983,77.024146,Bajit Pur Crossing,1153
DC4569,1154,28.779365,77.021882,Shri Krishna Gaushala,1154
DC4570,1155,28.765972,77.016595,Prem Piyau,1155
DC4571,1156,28.760231,77.015964,Chandpur Khurd,1156
DC4572,1157,28.751341,77.014504,Chandpur Kalan Crossing,1157
DC4573,1158,28.740427,77.009540,SDM Court Kanjhawala,1158
U99795A,1159,28.737470,77.008140,Kanjhawala Chowk,1159
U99794,1160,28.735440,77.012260,Shivam Plywood,1160
U00372,1161,28.733977,77.020936,Radha Swami Satsang / Rupali Enclave,1161
DC3747,1162,28.733450,77.025150,Shiv vihar/Bheem chowk,1162
U00665,1164,28.703449,77.075009,Sultanpuri Terminal,1164
DC3545,1165,28.611735,76.985666,Najafgarh Delhi Gate,1165
U00284,1166,28.584508,76.995742,Jhatikara Crossing,1166
DC3972,1167,28.577927,76.996696,Rewla Taj Pur More,1167
U00299,1168,28.565889,77.000619,Chhawla School,1168
DC4462,1169,28.561281,77.001954,Chhawla Village Kangan Heri Road,1169
DC4450,1170,28.553617,76.992947,Rishal Vihar,1170
DC4448,1171,28.548240,76.988690,Kangan Heri I,1171
DC4445,1172,28.544197,76.970717,Daulat Pur Crossing,1172
DC4771,1173,28.554267,76.972951,Osho Dhyan Mandir Jhatikra Road,1173
DC4455,1174,28.558496,76.973945,Pandwala Crossing,1174
DC5258,1175,28.568908,76.976429,Rewla Khanpur Depot,1175
U03742,1176,28.698566,77.322121,Harsh Vihar Terminal,1176
U03661,1177,28.695833,77.315364,Gagan Cinema,1177
U03673,1178,28.692839,77.316134,Sunder Nagri,1178
U03731,1179,28.688367,77.319753,Anand Gram,1179
U03719,1180,28.688794,77.321599,Anand Gram Kusht Ashram,1180
DC3795,1181,28.691467,77.324817,Tahir Pur,1181
U03767,1182,28.693100,77.327400,DLF More,1182
U03790,1183,28.688383,77.330351,Shalimar Garden Crossing,1183
U03773,1184,28.685597,77.331404,New Seema Puri Depot Cluster,1184
U02619,1185,28.666080,77.221610,Mori Gate Terminal,1185
U02162,1186,28.682636,77.197448,Roop Nagar (GT Road),1186
U02133,1187,28.684967,77.195933,Gur Mandi,1187
U02111,1188,28.688886,77.192984,Rana Pratap Bagh,1188
U02076,1189,28.690800,77.191800,Gurudwara Nanak Pyau,1189
U02017,1190,28.695600,77.187800,State Bank Colony,1190
U01996,1191,28.697500,77.186200,Telephone Exchange,1191
U01955,1192,28.699600,77.184500,Gujranwala Town,1192
U01926,1193,28.701700,77.182800,Bara Bagh,1193
DC4803,1194,28.772900,77.143050,Nangli Puna,1194
DC4804,1195,28.777717,77.142033,Jain Mandir,1195
DC4805,1196,28.781850,77.141117,Budhpur GT Road,1196
DC4806,1197,28.793150,77.139833,Bdo Office,1197
DC4807,1198,28.796783,77.139433,Alipur Village GT Road,1198
DC4809,1199,28.803533,77.143833,Palla More,1199
DC4810,1200,28.814633,77.161167,Bakhtawar Pur School,1200
DC4811,1201,28.818650,77.166167,Triveni Colony,1201
DC4812,1202,28.822333,77.171717,Bakhtawar Pur Village,1202
DC4813,1203,28.825933,77.174667,Bakhtawar Pur Primary School,1203
DC4814,1204,28.829550,77.178633,Bakhtawar Pur Garhi,1204
DC4815,1205,28.832525,77.179075,Akbar Pur Majra Crossing,1205
DC4983,1206,28.843470,77.180785,Palla Crossing,1206
DC5232,1207,28.857840,77.184510,Dahisara Border,1207
U00788,1208,28.589317,77.086350,Manglapuri / Palam Village,1208
DC3630,1209,28.583939,77.091489,Dwarka Flyover,1209
U00809,1210,28.581464,77.095955,Palam Colony Flyover,1210
DC3632,1211,28.579690,77.101749,Prehlad Pur,1211
DC3633,1212,28.577578,77.108753,Indian Oil Station,1212
DC3634,1213,28.575302,77.117054,IOL,1213
DC3635,1214,28.569553,77.123517,Palam Airport  / IGI Airport T1,1214
U01285,1215,28.568200,77.129800,Palam More,1215
DC3638,1216,28.569500,77.132600,NHW 8 Crossing,1216
U00761,1217,28.574654,77.141013,APS Colony NH-8,1217
U01460,1218,28.575302,77.147164,APS Colony / Arjun Path,1218
U01502,1219,28.574355,77.151709,Subroto Park (Arjun Path),1219
U01589,1220,28.575052,77.160073,Shani Mandir / Vasant Village,1220
U99601,1221,28.568464,77.164829,Swami Malai Mandir,1221
U01710,1222,28.563043,77.168215,R K Puram Sec-5,1222
U01730,1223,28.560598,77.170161,R K Puram Sec-5,1223
U01767,1224,28.558899,77.171968,Vasant Vihar Depot,1224
U02486,1225,28.543183,77.213617,Panchsheel Club,1225
U02536,1226,28.543008,77.216415,Sadhna Enclave,1226
DC3667,1227,28.542843,77.218556,North Point (Nursing Home),1227
U02673,1228,28.542403,77.224741,Swami Nagar,1228
U02853,1229,28.540839,77.235989,Masjid Moth,1229
U02870,1230,28.541702,77.238438,Savitri Cinema,1230
U02938,1231,28.542779,77.241391,OS Communications,1231
U02964,1232,28.543647,77.243651,Pumposh Enclave,1232
U03089,1233,28.548383,77.255294,Nehru Place Terminal,1233
DC5068,1234,28.857720,77.103770,Sec A 5 Crossing Narela,1234
U99792Z,1235,28.731440,77.031980,Karala Crossing,1235
U99791,1236,28.724870,77.029220,Shaheed Bhagat Singh Nagar,1236
U99658,1237,28.716400,77.028200,Madanpur Dabas,1237
U99819Z,1238,28.712614,77.028059,Mubarak Pur Crossing,1238
U99790,1239,28.709080,77.027990,Rani Khera School / Bhagya Vihar,1239
U99813A,1240,28.703580,77.027890,Rani Khera Village,1240
DC4959,1241,28.698024,77.027903,Rani Khera Depot Crossing,1241
DC4981,1242,28.701091,77.033816,Rani Khera Depot 1,1242
U99868,1243,28.641912,77.223700,New Delhi Railway Station Gate 2,1243
DC3597,1244,28.714300,77.172217,New Sabzi Mandi,1244
U99882,1245,28.725467,77.162833,Jahangirpuri GT Road,1245
U00305,1246,28.561283,77.002168,Chhawla Village,1246
U00321,1247,28.557759,77.004508,Sumesh Vihar,1247
U00330,1248,28.554147,77.006475,BSF Camp Chhawla,1248
U00344,1249,28.547741,77.009350,BSF Campus Chhawla,1249
DC3960,1250,28.543378,77.012818,Toll Tax Post,1250
U00369,1251,28.542180,77.017987,Bamnoli Power Station,1251
U00392BM,1252,28.539190,77.030335,Bamnoli Crossing,1252
DC3962,1253,28.535596,77.043810,Bijwasan Railway Station,1253
DC3961,1254,28.532617,77.052983,Palam Vihar Crossing,1254
DC3963,1255,28.533823,77.059292,Shri Golok Dham Bijwasan School,1255
DC3964,1256,28.533183,77.060433,Palam Vihar More,1256
DC3965,1257,28.527671,77.076297,Kapashera Village Bijwasan Road,1257
DC3966,1258,28.530050,77.086897,Kapashera More,1258
U99912A,1259,28.537955,77.093708,Samalkha Crossing,1259
DC4187,1260,28.537233,77.102493,Uppal Hotel,1260
U99837,1261,28.535299,77.108470,Shiv Murti (NH-8),1261
U01113,1262,28.543865,77.117712,Rang Puri (NH-8 Circle),1262
U01178,1263,28.548041,77.125184,Mahipal Pur (NH-8),1263
U01282,1264,28.566684,77.133985,Shankar Vihar NH-8,1264
U01387,1265,28.579967,77.144817,APS Colony/ Jharera Gaon,1265
U01510F,1266,28.584133,77.146033,Air Force HQ / Subroto Park,1266
U01541,1267,28.588067,77.150900,Maharana Pratap Chowk,1267
U01510A,1268,28.590067,77.155817,RR Hospital,1268
DC3843,1269,28.600967,77.167867,Air Force Officers Flats Dhaula Kuan,1269
U02237BP,1270,28.615380,77.175170,Budha Jayanti Park,1270
U02237RN,1271,28.623390,77.180040,R Block Rajinder Nagar,1271
NS0391,1272,28.632683,77.188750,Ridge Road,1272
DC3844,1273,28.637150,77.192400,CPRTI/ Delhi Jal Board,1273
U02237RS,1274,28.640923,77.194964,Ravinder Rangshala,1274
DC3845,1275,28.643833,77.196900,Karol Bagh Gurgaon Stand,1275
U02647,1276,28.644800,77.223733,Kamla Market / Ajmeri Gate,1276
U02714,1277,28.642900,77.226700,PS Kamla Market,1277
U01827,1278,28.641000,77.175900,Rajender Nagar,1278
U01864,1279,28.639100,77.179017,Shankar Road,1279
U01944,1280,28.636600,77.183683,New Rajender Nagar,1280
U02064,1281,28.632103,77.190255,Upper Ridge Road,1281
U02145,1282,28.626300,77.196500,Talkatora Stadium,1282
U02187,1283,28.625050,77.198717,RML Hospital,1283
U02266,1284,28.622600,77.202800,Talkatora Road,1284
U02323,1285,28.621200,77.205300,Kendriya Terminal / Gurudwara Rakab Gunj,1285
U02346,1286,28.621550,77.206217,Kendriya Terminal (Pt. Pant Marg),1286
U02354,1287,28.625600,77.206400,NDPO,1287
U99767,1288,28.628391,77.209583,Gurudwara Bangla Sahib,1288
DC0004,1289,28.630350,77.214050,Hanuman Mandir / Shivaji Stadium,1289
U02645,1290,28.630600,77.223800,Statesman House,1290
U02683,1291,28.629700,77.225200,Barakhamba Metro Station,1291
U02753,1292,28.627800,77.228500,Modern School,1292
U02832,1293,28.625800,77.234300,Mandi House,1293
U02892,1294,28.625500,77.239700,Tilak Bridge,1294
U02962,1295,28.628183,77.245150,ITO,1295
U03286,1296,28.630967,77.277767,Laxmi Nagar Metro Station,1296
U03353,1297,28.633765,77.282121,Shakarpur,1297
U03382,1298,28.635667,77.284783,Shakarpur Crossing,1298
U03395,1299,28.637025,77.287308,Nirman Vihar Metro Station,1299
U03447,1300,28.639417,77.291950,Sawarthya Vihar,1300
U03482,1301,28.642483,77.296350,New Rajdhani Enclave,1301
U03495,1302,28.643217,77.297317,KarKarDooma Crossing,1302
U03594,1303,28.636183,77.307233,Hassanpur Depot,1303
U03621,1304,28.636300,77.310300,Hassanpur Village,1304
U03651,1305,28.640860,77.315388,TELCO Gazipur,1305
U03667,1306,28.641950,77.315817,Gazipur Depot,1306
U03104,1307,28.511683,77.255467,Air Force Station,1307
U03136,1308,28.511733,77.257867,Air Force Station,1308
U03192,1309,28.509283,77.265000,Tughlaqabad Village,1309
U03224,1310,28.508250,77.269017,Kaya Maya Hospital,1310
U03287,1311,28.505800,77.276283,MB Road,1311
DC3901,1312,28.800311,77.035267,Bawana Village,1312
U00386,1313,28.803667,77.028517,Bawana Depot,1313
DC3903,1314,28.806442,77.022952,PS Bawana,1314
U00359,1315,28.808879,77.014789,Dariyapur Kalan School Bawana,1315
DC4894,1316,28.811630,77.010844,Bajit Pur Crossing,1316
DC5040,1317,28.808899,77.007976,Nangal Thakran,1317
DC5041,1318,28.808368,77.003341,Bajitpur Village,1318
DC5042,1319,28.803187,76.997871,Bajitpur Mandir,1319
DC5043,1320,28.805048,76.976832,Katewara Village,1320
DC5044,1321,28.805794,76.969799,Katewara Colony,1321
DC5045,1322,28.805856,76.966330,Katewara School,1322
DC4902,1323,28.800851,76.961916,Qutub Garh Village (T),1323
DC4903,1324,28.790469,76.962747,Jat Khor Crossing,1324
DC4685,1325,28.788222,76.962731,Divya Dham Ashram,1325
DC4687,1326,28.777750,76.961383,Punjab Khor Village,1326
DC4688,1327,28.773400,76.962100,Punjab Khor Village,1327
DC4689,1328,28.767583,76.964667,Balaji Enclave,1328
DC4691,1329,28.755728,76.968795,Tatesar Village,1329
DC4692,1330,28.753150,76.972400,Jonti Village,1330
DC5215,1332,28.747826,76.968183,Jonti Village,1332
DC5217,1333,28.743093,76.965878,Jonti Enclave,1333
DC5213,1334,28.727219,76.965995,Garhi Randhala,1334
DC5211,1335,28.717778,76.961366,Nizampur Village,1335
DC5209,1336,28.714765,76.969734,Vanasthali Public School,1336
DC5207,1337,28.711814,76.976400,Agrasen Vriddh Ashram,1337
DC5205,1338,28.710492,76.980403,Savda Village,1338
U00289,1340,28.696216,76.997820,Ghevra Village,1340
U00273,1341,28.692527,76.994074,FCI Ghevra,1341
U00275,1342,28.686356,76.994557,Ghevra Crossing / Ghevra Metro Station,1342
U00301,1343,28.684930,77.000890,Hiran Kudna Crossing,1343
U00362,1344,28.683909,77.012607,Mile Stone Factory,1344
U00379,1345,28.683407,77.018819,Shiv Shanker Dharam Kata,1345
U00393,1346,28.682503,77.029813,Mundka Village (Metro Station),1346
U00419,1347,28.682468,77.034963,Mundka Village Crossing,1347
U00446,1348,28.682422,77.040981,Swarn Park,1348
U00481,1349,28.682306,77.048765,Rajdhani Park,1349
U00511,1350,28.682261,77.054315,Qamruddin Nagar Terminal,1350
DC3549,1351,28.608237,76.947333,Mitraon Village,1351
U00298,1352,28.631627,77.000417,Jai Vihar,1352
U00306,1353,28.633436,77.002335,AirForce Station (BaniCamp),1353
U00336,1354,28.638588,77.007990,Baprola School,1354
U00350,1355,28.640866,77.011332,Baprola Village,1355
U00364,1356,28.643924,77.016886,BakkarWala Crossing,1356
U00374,1357,28.646300,77.021333,Chanchal Park,1357
DC3872,1358,28.648417,77.025167,Kotla Vihar Phase II,1358
DC3877,1359,28.649733,77.027233,TilangPur Kotla,1359
U99750A,1360,28.652383,77.032500,BrahmPuri Colony,1360
DC3874,1361,28.653617,77.035433,PS Ranhola,1361
DC3875,1362,28.654767,77.037983,Ranhola II,1362
U00444,1363,28.656100,77.040650,Ranhola Village,1363
U00479,1364,28.658483,77.043817,Ranhola Extension,1364
U00500,1365,28.661900,77.048783,Rishal Garden,1365
U00510,1366,28.664533,77.052633,Nilothi Crossing,1366
U00524,1367,28.667833,77.055183,ShivRam Park,1367
U00534,1368,28.670883,77.057750,Narain DharamKanta,1368
U00545,1369,28.673183,77.059700,Aman Puri,1369
U00565,1370,28.674700,77.061100,Kamruddin Nagar,1370
DC3876,1371,28.679883,77.066000,Nangloi Post Office,1371
U00595,1372,28.681617,77.067250,Nangloi,1372
U00615,1373,28.682268,77.068791,Sultan Puri Crossing/Nangloi,1373
U00647A,1374,28.682100,77.072925,Maha Raja Surajmal Stadium,1374
U00716,1375,28.681534,77.078788,Nangloi bus stand,1375
U00768,1376,28.681041,77.083855,Inder Enclave,1376
U00828,1377,28.680207,77.089280,Udyog Nagar,1377
U00881,1378,28.679904,77.092102,Peera Garhi Metro Station,1378
U00897,1379,28.680300,77.094400,Peera Garhi Chowk,1379
U00905,1380,28.688100,77.095100,B-Block Mangolpuri,1380
U00847,1381,28.687632,77.091057,Q Block Mangolpuri,1381
DC4472,1382,28.617265,76.893125,Mundhela Khurd Village,1382
DC4473,1383,28.616097,76.896646,Mundhela Khurd School,1383
DC4470,1384,28.614073,76.895727,Mundhela School II,1384
DC4468,1385,28.609680,76.893581,Mundhela Kalan Village,1385
DC4465,1386,28.605246,76.893756,Mundhela Kalan School,1386
U99773,1387,28.597441,76.895312,Mundhela Kalan Crossing,1387
U99774,1388,28.597788,76.898973,Mata Daan Kaur School,1388
DC4011,1389,28.568773,76.906807,Ujwa Gaon,1389
DC4012,1390,28.552433,76.907767,Dariyapur Village / Malikpur Crossing,1390
DC4430,1391,28.535481,76.909753,Jhul-Jhuli Check Post / Ghumanhera Crossing,1391
DC4428,1392,28.534141,76.915295,Ghuman Hera DTC Depot Crossing,1392
DC4792,1393,28.532578,76.919351,Ghuman Hera Village Main Road,1393
DC5498,1394,28.599000,76.966965,Khera Village 1,1394
DC4610,1395,28.550617,77.181617,Ber Sarai,1395
DC4609,1396,28.549483,77.180617,Ber Sarai,1396
DC4608,1397,28.546433,77.179433,School Of Physical Science,1397
DC4607,1398,28.543633,77.180100,FAI,1398
DC4606,1399,28.541867,77.183050,Sanskrit Vidyapeeth,1399
DC4605,1400,28.540483,77.185617,Katwaria Sarai,1400
DC4603,1402,28.537767,77.193833,NCERT,1402
U02505,1403,28.579738,77.212809,Safdurjung Terminal,1403
U02483,1404,28.576682,77.213418,Vikas Sadan,1404
U02473,1405,28.569185,77.212690,AIIMS Ring Road,1405
U02556,1406,28.569014,77.216908,South Extension,1406
U02600,1407,28.568824,77.220684,South Extension,1407
U03186,1408,28.576818,77.264444,Maharani Bagh,1408
U03201,1409,28.581423,77.265917,Bala Sahib Gurudwara,1409
U03139,1410,28.587117,77.259117,Sarai Kale Khan ISBT,1410
U03139HT,1411,28.590355,77.258079,Sarai Kale Khan ISBT,1411
U03221,1412,28.604417,77.269467,Nizamuddin Road Bridge / CPWD Office,1412
DC3669,1413,28.606621,77.274337,Khel Gaon CWG Village,1413
DC0126,1414,28.612617,77.281967,Akshardham Temple / Pusta Crossing,1414
U03375,1415,28.615381,77.284409,Samaspur Jagir Village / Pandav Nagar,1415
DC0128,1416,28.620150,77.295500,Sanjay Lake Trilokpuri,1416
DC0129,1417,28.620916,77.297718,East Vinod Nagar (NH24),1417
DC0130,1418,28.625800,77.312050,Khichdipur,1418
DC0131,1419,28.630367,77.316333,Gazipur NH-24 Crossing,1419
U03662,1420,28.632250,77.315683,Gazipur Village,1420
U00371,1422,28.682984,77.023909,Mundka School,1422
U00593,1423,28.682367,77.059401,Nangloi JJ Colony Lokesh Cinema,1423
U99642,1424,28.682235,77.064393,Nangloi Metro Station,1424
U00919,1425,28.679358,77.096988,Peera Garhi Chowk,1425
U00984,1426,28.678888,77.100623,Paschim Vihar (Super market),1426
U01020,1427,28.678287,77.105707,Multan Nagar,1427
U01035,1428,28.677509,77.111541,New Multan Nagar,1428
U01084,1429,28.677091,77.114998,Ordinance Depot,1429
U01121,1430,28.676365,77.120477,Madipur JJ Colony,1430
U01168,1431,28.675962,77.123824,Madipur Village,1431
U01225,1432,28.675382,77.128003,SPM College,1432
U01264,1433,28.674917,77.131520,Shivaji Park,1433
U01281,1434,28.674485,77.134949,Agarsen Hospital,1434
U01371,1435,28.675415,77.140464,Punjabi Bagh,1435
U01402,1436,28.680223,77.142213,Shakurpur village/Shiv Mandir,1436
U01540,1437,28.694778,77.154843,Netaji Subash Place/Wazirpur Depot,1437
U01574,1438,28.700253,77.158334,Prem Bari Pull,1438
U01610,1439,28.701286,77.161926,Richi Rich,1439
U01655,1440,28.701953,77.164286,Ashok Vihar Crossing,1440
U01720,1441,28.703770,77.169044,Shalimar Bagh,1441
U01851,1442,28.707649,77.178289,Azadpur Terminal,1442
U99850,1443,28.609300,77.238450,High Court,1443
U02826,1444,28.610409,77.233480,Art Gallery,1444
U02759,1445,28.617221,77.228557,Baroda House,1445
U02696,1446,28.621900,77.225800,Bhartiya Vidya Bhawan,1446
U10001,1447,28.623200,77.225100,Max Muller Bhawan,1447
U02626,1448,28.628700,77.221900,Scindia House,1448
U02514,1449,28.633083,77.215450,Shivaji Stadium Terminal,1449
U01808,1451,28.640400,77.174400,East Patel Nagar,1451
U01811,1452,28.637250,77.174650,NPL Colony,1452
U01787,1453,28.632800,77.173000,R-Block Rajendra Nagar,1453
U01762,1454,28.631200,77.171200,Janak Vihar,1454
U01692,1455,28.630033,77.166983,Pusa Quarters,1455
U01620,1456,28.625400,77.162200,NASC Dasghara,1456
U01595,1457,28.622800,77.159200,Todapur Village,1457
U01519,1458,28.626200,77.153400,Monitoring  and  Receiving Station,1458
U01490,1459,28.628700,77.151100,Inderpuri A-Block,1459
U01469,1460,28.633600,77.147900,Inder Puri JJ Colony,1460
U01456,1461,28.637200,77.146600,Inder Puri (Krishi Kunj),1461
U01420,1462,28.639500,77.143933,Loha Mandi,1462
U01347,1463,28.630900,77.138300,Payal Cinema,1463
DC3721,1464,28.626762,77.135747,Naraina Vihar / Indra Market,1464
U01230,1465,28.636933,77.128900,Mayapuri Depot Crossing,1465
U01216,1466,28.634183,77.127517,Government Press,1466
U01165,1467,28.629396,77.123502,Metal Forging,1467
DC3910,1468,28.627347,77.121763,BE Block Hari Nagar / ESI Dispensary,1468
U01128,1469,28.625217,77.119867,PS Mayapuri,1469
NS0600,1470,28.623800,77.118800,Bobby Soap,1470
U01097,1471,28.622383,77.117417,Gulab House,1471
U01068,1472,28.618117,77.112183,Zunk Market,1472
DC3915,1473,28.616667,77.110233,Maya Enclave,1473
U00906,1474,28.609892,77.095236,Desu Colony Janak Puri,1474
U00852,1475,28.611016,77.092008,Janak Cinema,1475
DC4708,1476,28.612528,77.088599,Raghu Nagar (Janak Puri),1476
DC4709,1477,28.613809,77.085678,Dabri Crossing (Pankha Road),1477
U00733,1478,28.615822,77.081712,C-2 Janak Puri,1478
U00694,1479,28.617169,77.078734,C-1 Janak Puri,1479
U02565,1480,28.662501,77.217933,Peeli Kothi,1480
U02479,1481,28.664436,77.215266,Tees Hazari Animal Hospital Mori Gate,1481
U02397,1482,28.662900,77.207565,Azad Market,1482
U01283,1483,28.674356,77.133909,Agarsen Hospital,1483
U01263,1484,28.674684,77.131448,Shivaji Park,1484
U01222,1485,28.675139,77.128069,SPM College,1485
U01183,1486,28.675542,77.125188,Madipur Village,1486
U01117,1487,28.676433,77.118065,Madipur JJ Colony,1487
U01085,1488,28.676881,77.114908,Ordinance Depot,1488
DC3659,1489,28.677279,77.111921,Avtar Enclave / New Multan Nagar,1489
U01018,1490,28.678096,77.105430,Multan Nagar,1490
U00981,1491,28.678694,77.100509,Paschim Vihar Market,1491
DC3660,1492,28.679188,77.096145,Peera Garhi Chowk,1492
U00854,1493,28.679663,77.091766,Peera Garhi Metro Station,1493
U00830,1494,28.679947,77.089403,Udyog Nagar,1494
U00772,1495,28.680544,77.084075,Inder Enclave,1495
U00708,1496,28.681143,77.078896,Jwala Puri / Nangloi Depot,1496
U00677,1497,28.681821,77.072910,Surajmal Stadium,1497
U00614,1498,28.681881,77.069255,Sultanpuri Crossing,1498
U00592,1499,28.681943,77.064075,Nangloi Metro Station,1499
U00576,1500,28.682093,77.058859,Nangloi JJ Colony Lokesh Cinema,1500
DC3711,1501,28.682061,77.054037,Qamruddin Nagar Terminal,1501
U99951,1502,28.584867,77.224367,Lodhi Colony,1502
U02657,1503,28.587450,77.224050,18-Block Lodhi Colony,1503
U99897,1504,28.590764,77.224799,Lodhi Estate / Air Force School,1504
DC0093,1505,28.592094,77.232747,JLN Stadium / Sunehri Pulla Depot,1505
U02857,1506,28.592517,77.236500,Ishpat Bhawan,1506
U02933,1507,28.586133,77.241067,CGO Complex,1507
U99932,1508,28.583575,77.240558,Pant Nagar,1508
U02880,1509,28.573217,77.237783,Defence Colony (Lajpat Nagar Mtr Stn),1509
U02848,1510,28.569125,77.235495,MCKR Hospital,1510
U02825,1512,28.559800,77.233600,Central School (KV),1512
U02866,1513,28.559000,77.237300,Lady Shri Ram College,1513
U02949,1514,28.554483,77.243200,Kailash Colony,1514
U02997,1515,28.552517,77.246200,Sant Nagar,1515
U03029,1516,28.548600,77.249200,Nehru Place,1516
U03110,1517,28.548578,77.255659,Nehru Place Terminal,1517
U03165,1518,28.538692,77.261798,Govind Puri,1518
DC3693,1519,28.537554,77.261339,Govindpuri Gali No 5,1519
U03156,1520,28.534600,77.260200,Ram Puri Gali No 13,1520
U03154,1521,28.532900,77.259600,Govindpuri Extn Gali No. 16,1521
U03144,1522,28.531895,77.259197,DDA Flats Kalkaji,1522
U03131,1523,28.529982,77.258506,DDA Market Kalkaji,1523
U03135,1524,28.528315,77.257817,DDA Flats KalkaJi,1524
U03114,1525,28.524100,77.256200,Tara Apartment,1525
U03084,1526,28.519450,77.254483,Guru Ravi Das Ashram / Tughlaqabad Extension,1526
U03070,1527,28.517133,77.253667,Jamia Hamdard Library,1527
U03059,1528,28.514917,77.252817,Majeedia Hospital,1528
U03036,1529,28.511838,77.249778,Hamdard Nagar / Sangam Vihar,1529
DC4579,1530,28.660016,77.144475,Karampura Terminal,1530
U01424,1531,28.658615,77.144108,Moti Nagar,1531
U01388,1532,28.656800,77.140833,Moti Nagar Market,1532
U01344,1533,28.655000,77.137600,Kirti Nagar,1533
U01271,1534,28.652800,77.132400,Basai Darapur / Ramesh Nagar,1534
U01240,1535,28.651900,77.128900,Bali Nagar,1535
U01220,1536,28.650783,77.126200,Raja Garden,1536
U03944,1537,28.647847,77.120113,Rajouri Garden,1537
U01092,1538,28.645683,77.116211,Tagore Garden,1538
U01076,1539,28.644000,77.113549,Tagore Garden Metro Station / Tatarpur,1539
U01038,1540,28.641920,77.108859,Subhash Nagar Crossing / Mukherji Park,1540
U01013,1541,28.639983,77.104350,Meenakshi Garden,1541
U00976,1542,28.638567,77.100583,Sant Pura Tilak Nagar,1542
U00933,1543,28.634409,77.097456,Tilak Nagar Jail Road,1543
U00955,1544,28.631200,77.098850,Fateh Nagar,1544
U00968,1545,28.628000,77.100233,G Block Hari Nagar,1545
U00986,1546,28.623955,77.102012,Hari Nagar Depot,1546
U01766,1549,28.597200,77.171400,Officer Enclave S.P Marg,1549
U01815,1550,28.599200,77.175300,Bapu Dham,1550
U01845,1551,28.600683,77.178050,Railway Colony (Sardar Patel Marg),1551
U01939,1552,28.603800,77.184000,Bhartiya Sadhu Samaj,1552
U02031,1553,28.607500,77.188700,Palika Kutumb,1553
U02072,1554,28.611050,77.190700,11 Murti,1554
U02123,1555,28.621703,77.194734,Talkatora Stadium Garden,1555
U02419,1556,28.625367,77.209583,Gurudwara Bangla Sahib,1556
U99913,1557,28.626357,77.212675,YMCA / Palika Kendra,1557
U02539,1558,28.628746,77.216568,Palika Kendra,1558
U99914,1560,28.667068,77.229274,ISBT Kashmere Gate,1560
U03057,1562,28.515017,77.252617,Majeedia Hospital,1562
U03067,1563,28.517200,77.253400,Jamia Hamdard Library,1563
U03081,1564,28.519567,77.254300,Guru Ravi Das Ashram / Tughlaqabad Extension,1564
U03107,1565,28.524111,77.255960,Tara Apartment,1565
U03161,1566,28.525600,77.261000,Tughlaqabad Extension,1566
U03211,1567,28.527000,77.267000,DDA Kalkaji Extension,1567
DC3781,1568,28.528783,77.270333,CRPF Camp Okhla Phase 1,1568
U03217,1569,28.534500,77.268300,C-Lal Chowk,1569
U03203,1570,28.539467,77.266233,Kalkaji Depot,1570
DC0035,1571,28.591283,77.233300,Sunehari Pulla Depot / Jawahar Lal Nehru Stadium Terminal,1571
U99852A,1572,28.558951,77.296058,Unani Hospital / Okhla Ext Thokar 3,1572
DC3683,1573,28.561467,77.294667,Nai Basti,1573
U03367,1576,28.560917,77.281183,Ansari Health Care,1576
U03333,1577,28.560900,77.279800,Jamiya Millia College,1577
U03282,1578,28.560950,77.275467,Holy Family Hospital,1578
U03257,1579,28.561900,77.272300,Bharat Nagar Crossing,1579
U03238,1580,28.566600,77.269583,Bharat Nagar,1580
U02360,1583,28.698357,77.205678,GTB Nagar,1583
U02066,1584,28.693527,77.199123,Kalyan Vihar Terminal,1584
U02719,1585,28.660309,77.228301,Old Delhi Railway Station,1585
DC4968,1586,28.840692,77.127563,Singhola Crossing,1586
DC5080,1587,28.844749,77.126832,Singhola Village GT Road,1587
DC5081,1588,28.854550,77.124870,Singhu Village Crossing,1588
DC5077,1589,28.856630,77.124520,Singhu Border GT Road,1589
DC5073,1590,28.857320,77.108440,Gurudwara Nanak Nirankari Dera Sant Baba Resham Singh Ji,1590
DC5071,1591,28.857340,77.105870,Radha Swami Satsang Narela,1591
DC5069,1592,28.857810,77.103320,Sec A 5 Crossing Narela,1592
DC5067,1593,28.861220,77.101120,Police Colony Narela,1593
DC5065,1594,28.864400,77.098670,Sec A 5 and 8 Narela Desu Colony,1594
DC5063,1595,28.861220,77.095690,Kanya Gurukul Narela,1595
DC4973,1596,28.838416,77.102104,Narela A7 Raja Harish Chandra Hospital,1596
DC5012,1597,28.850662,77.087307,Bankner Crossing,1597
DC5015,1598,28.851292,77.080299,New Basti Bankner,1598
DC5016,1599,28.850763,77.077210,Bankner Village,1599
DC5019,1600,28.851133,77.073126,Sarvodaya Vidyalaya Bankner,1600
DC5021,1601,28.851830,77.067609,Lampur School,1601
DC5022,1602,28.852384,77.064919,Lampur Village,1602
DC5025,1603,28.856693,77.052374,Lampur Border,1603
U03683,1604,28.643371,77.316656,Maharaj Pur Check Post,1604
U03676,1605,28.641921,77.316118,Gazipur Depot,1605
U03623,1606,28.636133,77.310567,Hasanpur Village,1606
U03587,1607,28.635896,77.308099,Hasanpur Depot,1607
U03469,1608,28.648333,77.294949,JagatpuriF-Block,1608
U03459,1609,28.651588,77.292852,Jagatpuri A Block,1609
U03451,1610,28.655000,77.291900,Radheypuri,1610
U03443,1611,28.655933,77.291417,Arjun Nagar,1611
U03412,1612,28.659883,77.288350,East Krishna Nagar,1612
U03392,1613,28.662914,77.286178,Swaran Cinema,1613
U03376,1614,28.666617,77.283200,East Azad Nagar,1614
U03343,1615,28.667800,77.282000,Jharkhandi,1615
U03337,1616,28.670800,77.280600,Kanti Nagar Extension,1616
U02655,1617,28.680170,77.223489,IP College,1617
U02299,1618,28.706538,77.204540,Dhaka Village,1618
U02296,1619,28.712000,77.204267,Radio Colony,1619
U02294,1620,28.714800,77.204000,Nirankari Colony,1620
U02215,1621,28.720833,77.200050,CV Raman ITI,1621
U02158,1622,28.727100,77.197800,Nirankari Sarovar Burari Xing,1622
U02168,1623,28.732241,77.198077,Burari Transport Authourity,1623
U02159,1624,28.735000,77.197300,Jharoda Dairy Xing,1624
DC3723,1625,28.741983,77.197800,Sant Nagar Main Market,1625
U02164,1626,28.744700,77.198000,Chetan Bihari Mandir Sant Nagar,1626
U02183,1627,28.749000,77.198500,Sarvodhya Vidhyalay Burari,1627
U02193,1628,28.754000,77.198800,Burari Village,1628
DC0060,1629,28.756300,77.197100,Ekta Garden- Harijan Basti,1629
U02077,1631,28.760033,77.191017,Laxmi Vihar,1631
U02029,1632,28.761067,77.188617,Kaushik Enclave,1632
U01938,1633,28.764300,77.183800,Amrit Vihar,1633
DC3797,1634,28.768867,77.180733,Natthupura,1634
DC4361,1635,28.775565,77.179417,Ibrahim Pur More,1635
DC4363,1636,28.779129,77.179635,Keshav Nagar Mukti Ashram,1636
U03436,1637,28.563423,77.291309,Okhla Village,1637
U03409,1638,28.562317,77.286100,Batla House,1638
U02560,1639,28.636700,77.218300,Marina,1639
U02570,1640,28.641500,77.218517,New Delhi Railway Station Gate 1,1640
U02489,1641,28.644900,77.213500,Dispensary Paharganj,1641
U02400,1642,28.646088,77.208137,Police Station Paharganj,1642
U02300,1643,28.646879,77.204083,Jhandewalan,1643
U02241,1644,28.648113,77.200963,Karol Bagh Terminal,1644
U02207,1645,28.648267,77.199017,Faiz Road,1645
U01462,1646,28.660583,77.147367,ESI Dispensary/CGHS Dispensary,1646
DC5017,1647,28.850842,77.076805,Bankner Village,1647
DC5014,1648,28.851418,77.080363,New Basti Bankner,1648
DC5013,1649,28.850725,77.087612,Bankner Crossing,1649
DC5007,1650,28.832968,77.093401,Babu Jag Jeevan Ram Colony,1650
DC5005,1651,28.829124,77.094652,Bhor Garh,1651
DC5003,1652,28.821359,77.100732,DSIDC Narela,1652
DC5001,1653,28.820309,77.101315,Narela ITI / Narela Depot,1653
DC4999,1654,28.817344,77.102800,Shahpur Garhi,1654
U00566,1655,28.599902,77.061304,Madhu Vihar,1655
U00585,1656,28.597255,77.065344,Dwarka Sec 2-6,1656
U00613,1657,28.595881,77.069270,J M International School,1657
U00719,1658,28.587163,77.086721,Palam Gaon Crossing,1658
DC3631,1659,28.583950,77.091517,Dwarka Flyover Palam Village,1659
U01096A,1660,28.583375,77.116638,More Lines,1660
DC3839,1661,28.587050,77.118483,Blood Bank,1661
DC3842,1662,28.589430,77.119720,Kendriya Vidhyalaya,1662
U01142,1663,28.592200,77.121100,Geeta Ashram,1663
U01158,1664,28.595400,77.122700,Sadar Bazar,1664
DC3663,1665,28.599133,77.125683,Chhawni Hospital,1665
U01239,1666,28.597700,77.129200,Kabul Line,1666
U01296,1667,28.596600,77.134700,Shastri Bazar,1667
DC3664,1668,28.596667,77.140783,Sri Nagesh Garden,1668
U01442,1669,28.596667,77.145400,St. Martin School,1669
U02146,1670,28.622600,77.196600,Dr. RML Hospital,1670
U02165,1671,28.624508,77.197924,RML Hospital,1671
U02457,1672,28.624400,77.211200,Patel Chowk,1672
DC3704,1673,28.617483,77.213267,Krishi Bhawan,1673
DC4131,1674,28.619333,77.217600,Le Meridian Hotel,1674
U02597,1675,28.620800,77.220600,Firoz Shah Road,1675
U02711,1676,28.623400,77.226600,Kasturba Gandhi Crossing,1676
U02967,1677,28.639826,77.243667,Delhi Gate / Ambedkar Stadium Terminal,1677
U03010,1678,28.632800,77.247200,Indira Gandhi Stadium,1678
U03018,1679,28.629567,77.247833,ITO Ring Road,1679
DC4203,1680,28.638019,77.252692,Delhi Sachivalaya (Rajghat Power House),1680
DC4779,1681,28.529966,76.955140,Shikar Pur Village,1681
DC4781,1682,28.543817,76.963483,Sarvodya School Daulat Pur,1682
DC4443,1683,28.545597,76.965275,Shikar Pur Crossing,1683
U02305,1684,28.617513,77.203683,Kendriya Terminal (Church Road),1684
U02345,1685,28.618500,77.206000,Gurudwara Rakab Ganj,1685
U01510,1687,28.590150,77.156750,RR Hospital / Maharana Pratap Chowk,1687
U01510AF,1688,28.583678,77.146096,Air Force HQ / Subroto Park,1688
U01385,1689,28.579433,77.145000,APS Colony/ Jharera Gaon,1689
U01288,1690,28.566367,77.134283,Shankar Vihar/ National Highway 8,1690
U99910,1691,28.545775,77.123056,Mahipal Pur Crossing NH-8,1691
U01114,1692,28.541953,77.118268,Rang Puri (NH-8),1692
U01071,1693,28.535769,77.112611,Shiv Murti,1693
U00954,1694,28.523139,77.099001,Rajokari Crossing NH-8,1694
U99827,1695,28.534898,77.108437,Shiv Murti / Dwarka More,1695
U99828,1696,28.537322,77.092137,Samalkha Crossing,1696
U99829,1697,28.534542,77.090534,Samalkha Village,1697
U99727,1698,28.528867,77.086750,Kapashera Crossing,1698
U00757,1699,28.523500,77.083250,Kapashera Village,1699
U04003A,1701,28.547350,77.253991,Nehru Place Terminal,1701
U03034,1702,28.547550,77.249444,Nehru Place,1702
U02999,1703,28.552367,77.246167,Sant Nagar,1703
U02940,1704,28.556100,77.241100,Kailash Colony,1704
U02863,1705,28.558800,77.237100,Lady Shri Ram College,1705
U02827,1706,28.559700,77.233500,Central School (KV),1706
U02774,1708,28.566027,77.229627,Andrews Ganj,1708
U02596,1709,28.568367,77.223150,South Extension,1709
U02567,1710,28.568767,77.216767,South Extn Kotla Petrol Pump,1710
U02487,1711,28.568921,77.213199,AIIMS,1711
U02309,1712,28.569541,77.203522,SJ Hospital Ring Road,1712
U02131,1713,28.569296,77.195039,Nauroji Nagar,1713
U01947,1714,28.569743,77.186793,Hyatt Hotel (GAIL),1714
U01924,1715,28.570500,77.182600,RK Puram Sec-12,1715
U01871,1716,28.572300,77.179800,RK Puram Sec-12,1716
U01844,1717,28.575200,77.177800,RK Puram Sec-12,1717
U01802,1718,28.581951,77.173971,South Moti Bagh (Ring Road),1718
U01776,1719,28.584933,77.172167,Moti Bagh Gurudawara Nanakpura,1719
U01750,1720,28.587833,77.170333,Satya Niketan,1720
U01716,1721,28.590383,77.168467,ARSD College (Dhaula Kuan),1721
U01671,1722,28.598535,77.163302,Dhaula Kuan,1722
U01489,1723,28.603850,77.155433,RR Line,1723
U99859,1724,28.605202,77.146802,Garrison Engg.,1724
DC4515,1725,28.607279,77.141098,Brar Square,1725
U01208A,1726,28.605350,77.126367,Kirbi Place,1726
U01040,1727,28.611868,77.109342,Nangal Raya Lajwanti Garden,1727
U01025,1728,28.607682,77.104129,D Block Janak Puri (Pankha Road),1728
DC4021,1732,28.523154,76.899390,Rawta Village,1732
DC4022,1733,28.531783,76.907100,Jhuljhuli Crossing,1733
DC4024,1734,28.552617,76.907650,Dariyapur Village / Malikpur Crossing,1734
DC4027,1735,28.594718,76.915162,Jaffarpur Kalan RTRM Hospital,1735
DC4029,1736,28.608446,76.944717,Mitraon Village (Kair Village Road),1736
DC3550,1737,28.617883,76.931200,Bhagini Nivedita College,1737
DC3528,1738,28.618117,76.930783,Kair Depot,1738
U03732,1739,28.677763,77.323245,Shahdara Border Seemapuri Road,1739
U03754,1740,28.679779,77.324753,J and  K Pocket Dilshad Garden,1740
U03772,1741,28.681281,77.328043,Seemapuri Old J / K,1741
U03794,1742,28.684794,77.331346,New Seema Puri Depot Cluster,1742
U03793,1743,28.685631,77.331179,Dilshad Garden Depot Cluster,1743
U03789,1744,28.688212,77.330289,Shalimar Garden More,1744
U03770,1745,28.692877,77.327190,DLF More,1745
DC3794,1746,28.691367,77.324967,Tahir Pur,1746
U03735,1747,28.688813,77.321994,Anand Gram,1747
U03726,1748,28.688673,77.319121,Anand Gram Kusht Ashram,1748
U03669,1749,28.692844,77.315743,Sunder Nagri,1749
U03658,1750,28.695745,77.315146,Gagan Cinema,1750
U03657,1751,28.697499,77.314785,Gagan Cinema (Wazirabad Road),1751
U03634,1752,28.698102,77.311463,Bank Colony,1752
U03582,1753,28.698972,77.306183,Nand Nagri Depot,1753
U03492,1754,28.700066,77.297896,Ashok Nagar / Meet Nagar,1754
U03441,1755,28.700502,77.295585,MIG Flates Loni Road,1755
DC4887,1756,28.699263,77.291784,MIG Flats Loni Road,1756
DC4885,1757,28.696189,77.291843,PS Jyoti Nagar / LIG Flats Loni Road,1757
DC4883,1758,28.691428,77.292048,Jyoti Nagar,1758
DC3987,1759,28.689220,77.291307,Jyoti Nagar / Durga Puri,1759
DC3988,1760,28.689400,77.287000,Chhajjupur,1760
DC3989,1761,28.689800,77.283783,Shiv Mandir,1761
DC3990,1762,28.690694,77.279477,Babar Pur Ext Terminal,1762
DC4053,1763,28.694417,77.280517,Vijay Park / Kabir Nagar,1763
DC4054,1764,28.696833,77.281817,Krishna Marg Kardam Puri,1764
DC4055,1765,28.700450,77.283483,C4 Yamuna Vihar Crossing,1765
DC4056,1766,28.701750,77.282450,Gokul Puri,1766
U03648,1767,28.693400,77.313750,Nand Nagari E-Block,1767
U03627,1768,28.691383,77.310483,Nand Nagari Terminal,1768
U01418,1769,28.660417,77.143770,Karampura Terminal,1769
U01454,1770,28.658883,77.146683,Moti Nagar Industrial Area,1770
U01473,1771,28.657500,77.148900,Moti Nagar Industrial Area,1771
U01542,1772,28.653600,77.155300,Shadipur Depot,1772
U02232,1773,28.648374,77.200656,Karol Bagh Terminal,1773
U02311,1774,28.647103,77.203900,Jhandewalan,1774
U02577,1775,28.641680,77.218562,New Delhi Railway Station Gate 1,1775
U02564,1776,28.636900,77.218500,Marina,1776
U02622,1777,28.629210,77.221797,Kailash Bhawan,1777
U02668,1778,28.624500,77.224600,Max Mueller Bhawan,1778
U02704,1779,28.621300,77.226400,Bhartiya Vidya Bhawan,1779
U02748,1780,28.617358,77.228653,Baroda House,1780
U02784,1781,28.615873,77.230165,Baroda House,1781
U02838,1782,28.613649,77.234670,National Stadium,1782
U99848,1783,28.609467,77.237900,High Court,1783
U02900,1784,28.608422,77.240216,Zoo,1784
U02924,1785,28.605254,77.240356,Sunder Nagar,1785
NS0265,1786,28.598679,77.240793,Delhi Public School,1786
U02977,1787,28.591455,77.245072,Police Station Nizamuddin (Dargah),1787
U02998,1788,28.589642,77.246307,Nizamuddin Extension,1788
DC4007,1789,28.584883,77.249733,Bhogal (Jungpura),1789
U03045,1790,28.583537,77.250790,Bhogal,1790
U03151,1791,28.570423,77.259919,Ashram Chowk,1791
U03188,1792,28.566306,77.263032,Mata Mandir New Friends Colony,1792
DC3694,1793,28.566738,77.269676,Bharat Nagar,1793
U03258,1794,28.562200,77.272300,Bharat Nagar Crossing,1794
U03277,1795,28.561083,77.275417,Holy Family Hospital,1795
U03336,1796,28.561150,77.280117,Jamiya Millia College,1796
U03358,1797,28.561400,77.283600,Ansari Health Care,1797
U03406,1798,28.564700,77.288000,Batla House,1798
U03439,1799,28.563283,77.291386,Okhla Village,1799
DC108,1800,28.561600,77.294500,Nai Basti,1800
U99852,1801,28.558980,77.296216,Unani Hospital / Okhla Ext Thokar 3,1801
U03087,1802,28.547317,77.254033,Nehru Place,1802
U02968,1803,28.543597,77.244165,Pumposh Enclave,1803
U02852,1804,28.540504,77.235786,OS Communication / Masjid Moth,1804
U02676,1805,28.542197,77.224691,Swami Nagar,1805
DC0081,1806,28.542652,77.218522,North Paint Nursing Home,1806
U02513,1807,28.542929,77.215014,Sadhna Enclave,1807
DC0082,1808,28.543264,77.209892,Panchsheel Enclave,1808
U02339,1809,28.543720,77.205142,Panchsheel Club (Sarv Priya Vihar),1809
U02248,1810,28.569500,77.201400,Raj Nagar,1810
DC4862,1811,28.570583,77.199117,AB Block Sarojini Nagar,1811
DC4863,1812,28.575200,77.199017,PS Sarojini Nagar,1812
DC4864,1813,28.577600,77.198917,Sarojini Nagar Market,1813
DC4865,1814,28.579866,77.199505,Enquiry Office Pilanji Village,1814
DC4866,1815,28.579815,77.204490,Laxmi Bai Nagar,1815
DC5165,1817,28.591505,76.919018,Jaffar Pur Kalan,1817
U00627,1818,28.627428,77.071721,Vikas Puri Crossing,1818
U00673,1819,28.628843,77.075520,Dholi Piao,1819
U00695,1820,28.630165,77.078084,Janak Puri  District Centre,1820
U00776,1821,28.633285,77.086332,Janakpuri East Nangli Zalib,1821
U00826,1822,28.634106,77.088777,Janak Puri Check Post,1822
U00874,1823,28.635538,77.092903,Tilak Nagar Crossing,1823
U00932,1824,28.636669,77.097060,Tilak Nagar Terminal,1824
DC3943,1825,28.617959,77.336505,Sapera Basti Crossing,1825
U03812A,1826,28.614033,77.337350,Mayur Vihar Ph-III,1826
U03823,1827,28.611517,77.339900,CRPF Camp,1827
U03814,1828,28.608467,77.337350,Mayur Vihar Phase III A1 Block,1828
U03798,1829,28.605350,77.333117,Bharti Public School,1829
U03786,1830,28.602883,77.329317,New Kondali A1 Crossing,1830
U03769,1831,28.601700,77.327550,Mayur vihar Phase-III Crossing,1831
U03760,1832,28.601583,77.326033,Mayur vihar Phase-III Crossing,1832
DC4050,1833,28.603150,77.324700,Ganpati Mandir,1833
U03738,1834,28.605067,77.322683,Fire Station,1834
U03709,1835,28.608617,77.319983,Dallu Pura,1835
U03743,1836,28.612978,77.322856,Kondali Old,1836
U03705,1837,28.614624,77.319241,Kalyan Puri Crossing,1837
U03678,1838,28.613350,77.316200,Super Bazar,1838
U03638,1839,28.612790,77.312844,Chand Cinema,1839
DC4035,1840,28.617300,77.309633,Lal Bahadur Shashtri Hospital,1840
DC4036,1841,28.619150,77.308900,Kalyan Vas,1841
DC4037,1842,28.620517,77.307533,Radha Swami Satsang,1842
DC4038,1843,28.620115,77.304936,Mayur Vihar Phase 2 (T),1843
DC4575,1844,28.620507,77.297870,East Vinod Nagar (NH24),1844
U03470,1845,28.621767,77.295083,Govt Model School / Ambedkar Park,1845
U03432,1846,28.619900,77.290050,Dharma Apartment,1846
U03391,1847,28.619767,77.285817,Mother Dairy,1847
U03378,1848,28.620850,77.285167,Ganesh Nagar,1848
U03327,1849,28.627100,77.279467,Shakar Pur School Block,1849
U03295,1850,28.629233,77.277350,Laxmi Nagar / Shakarpur Crossing,1850
U03006,1851,28.626394,77.246675,ITO Ring Road,1851
U03007,1852,28.633714,77.246653,IG Stadium,1852
U03004,1853,28.636821,77.246692,Gandhi Darshan,1853
U02969,1854,28.639661,77.243789,Delhi Gate / Ambedkar Stadium Terminal,1854
U02916,1855,28.641400,77.240467,Delhi Gate,1855
U01336,1856,28.667724,77.137508,Punjabi Bagh Terminal,1856
